[{"name":"Al Gash, Atbara, Seteit, Gash, Kassala, Sudan","category":"verde","lat":15.2897411,"lng":36.5449751,"project_id":null,"cris_id":null},{"name":"Amhara Region, Districts of Mekit, Ambassel and Werilu","category":"verde","lat":11.3494247,"lng":37.9784585,"project_id":null,"cris_id":null},{"name":"Anseba, Debub, Eritrea","category":"verde","lat":15.4067042,"lng":38.6110264,"project_id":null,"cris_id":null},{"name":"Aweil East, Northern Bahr El Ghazal, Sudan","category":"verde","lat":8.536044900000002,"lng":26.7967849,"project_id":null,"cris_id":null},{"name":"Bafata-Gabù","category":"rosso","lat":12.1588799,"lng":-14.1930918,"project_id":null,"cris_id":null},{"name":"Bari & Nugal Regions, Puntland","category":"blu","lat":41.1171432,"lng":16.8718715,"project_id":null,"cris_id":null},{"name":"Batha Ouest, Ati","category":"verde","lat":13.2166667,"lng":18.3333333,"project_id":null,"cris_id":null},{"name":"Benguela","category":"rosso","lat":-12.58,"lng":13.4077778,"project_id":null,"cris_id":null},{"name":"Bié and Huambo","category":"verde","lat":-12.142423,"lng":16.6627796,"project_id":null,"cris_id":null},{"name":"Bo , Pujehun, Kenema, Sierra Leone","category":"verde","lat":7.597784,"lng":-11.590783,"project_id":null,"cris_id":null},{"name":"Bo, Moyamba, Sierra Leone","category":"verde","lat":8.1844438,"lng":-11.9938157,"project_id":null,"cris_id":null},{"name":"Bong County","category":"rosso","lat":6.829501899999999,"lng":-9.367308399999999,"project_id":null,"cris_id":null},{"name":"Bonthe District, Sierra Leone","category":"verde","lat":7.527414899999999,"lng":-12.1632718,"project_id":null,"cris_id":null},{"name":"Boucle du Mouhoun, Nayala, Gassan, Gossina, Kougny, Toma, Yaba, Yé","category":"verde","lat":12.8166667,"lng":-3.2,"project_id":null,"cris_id":null},{"name":"Brakna","category":"rosso","lat":17.2317561,"lng":-13.1740348,"project_id":null,"cris_id":null},{"name":"Burkina Faso","category":"blu","lat":12.238333,"lng":-1.561593,"project_id":null,"cris_id":null},{"name":"Burkina Faso","category":"verde","lat":12.238333,"lng":-1.561593,"project_id":null,"cris_id":null},{"name":"Burkina Faso,  Séno, Oudalan","category":"verde","lat":14.9277778,"lng":-0.3947222,"project_id":null,"cris_id":null},{"name":"Burkina Faso, Mouhoun.","category":"verde","lat":11.3879466,"lng":-2.8338718,"project_id":null,"cris_id":null},{"name":"Burkina Faso, Plateau Central,  Hauts Bassins.","category":"verde","lat":12.2537648,"lng":-0.7532808999999999,"project_id":null,"cris_id":null},{"name":"Burundi","category":"verde","lat":-3.373056,"lng":29.918886,"project_id":null,"cris_id":null},{"name":"Burundi, Gitega, Ruyigi, Rumonge, Bururi","category":"verde","lat":-3.429664,"lng":29.92979,"project_id":null,"cris_id":null},{"name":"Bururi","category":"verde","lat":-3.95,"lng":29.6166667,"project_id":null,"cris_id":null},{"name":"Cascades, Hauts Bassins","category":"verde","lat":11.4942003,"lng":-4.2333355,"project_id":null,"cris_id":null},{"name":"Chiredzi, Zimbabwe, Sangwe, Chizvirizvi, Malilangwe ","category":"verde","lat":-21.05,"lng":31.666667,"project_id":null,"cris_id":null},{"name":"Conakry","category":"rosso","lat":9.537029,"lng":-13.67847,"project_id":null,"cris_id":null},{"name":"Conakry et Kindia","category":"verde","lat":9.537029,"lng":-13.67847,"project_id":null,"cris_id":null},{"name":"Conakry, Guinée maritime, Guinée forestière","category":"verde","lat":9.537029,"lng":-13.67847,"project_id":null,"cris_id":null},{"name":"Côte d'Ivoire","category":"rosso","lat":7.539988999999999,"lng":-5.547079999999999,"project_id":null,"cris_id":null},{"name":"Dandoli, Muetoumo, Ondogou, Pelou, Kendé, Soroly, Wadouba et Ségué-ire, Cercle de Bandiagara, Région de Mopti, Mali.","category":"blu","lat":14.5370435,"lng":-3.6623239,"project_id":null,"cris_id":null},{"name":"Debarwa, Dekemhare, Debub.","category":"verde","lat":15.0659,"lng":39.04538,"project_id":null,"cris_id":null},{"name":"Debub, Eritrea","category":"verde","lat":14.9478692,"lng":39.1543677,"project_id":null,"cris_id":null},{"name":"Ecunha, Province of Huambo, Angola","category":"rosso","lat":-12.7666667,"lng":15.7333333,"project_id":null,"cris_id":null},{"name":"Ed Daein, South Darfur,Sudan","category":"verde","lat":10.4791039,"lng":26.7967849,"project_id":null,"cris_id":null},{"name":"Eritrea","category":"verde","lat":15.179384,"lng":39.782334,"project_id":null,"cris_id":null},{"name":"Eritrea","category":"verde","lat":15.179384,"lng":39.782334,"project_id":null,"cris_id":null},{"name":"Eritrea","category":"verde","lat":15.179384,"lng":39.782334,"project_id":null,"cris_id":null},{"name":"Ethiopia, Oromia","category":"verde","lat":7.546037699999999,"lng":40.6346851,"project_id":null,"cris_id":null},{"name":"Ethiopia,Oromia, Amhara ","category":"verde","lat":10.6884685,"lng":39.8990473,"project_id":null,"cris_id":null},{"name":"Ethipioa","category":"verde","lat":9.145000000000001,"lng":40.489673,"project_id":null,"cris_id":null},{"name":"Ethipioa","category":"verde","lat":9.145000000000001,"lng":40.489673,"project_id":null,"cris_id":null},{"name":"Freetown,  Sierra Leone","category":"verde","lat":8.484145999999999,"lng":-13.22867,"project_id":null,"cris_id":null},{"name":"Ganki, Gorgol","category":"rosso","lat":16.215349,"lng":-13.23044,"project_id":null,"cris_id":null},{"name":"Ghana,  Upper East","category":"verde","lat":10.7082499,"lng":-0.9820667999999999,"project_id":null,"cris_id":null},{"name":"Ghana, Wa East district, Upper West Region","category":"verde","lat":10.0666667,"lng":-2.5,"project_id":null,"cris_id":null},{"name":"GHANA, ASHANTI ","category":"blu","lat":6.7470436,"lng":-1.5208624,"project_id":null,"cris_id":null},{"name":"Gitega, Burundi","category":"verde","lat":-3.429664,"lng":29.92979,"project_id":null,"cris_id":null},{"name":"Gnagna","category":"verde","lat":12.8974992,"lng":0.0746767,"project_id":null,"cris_id":null},{"name":"Gorgol Brakna Assaba hodh el Gharbi","category":"rosso","lat":16.6912149,"lng":-9.5450974,"project_id":null,"cris_id":null},{"name":"Guéra, Salamat","category":"verde","lat":12.3042292,"lng":18.9977689,"project_id":null,"cris_id":null},{"name":"Guiné-Bissau","category":"verde","lat":11.803749,"lng":-15.180413,"project_id":null,"cris_id":null},{"name":"Guinée","category":"verde","lat":9.945587,"lng":-9.696645,"project_id":null,"cris_id":null},{"name":"Guinée","category":"verde","lat":9.945587,"lng":-9.696645,"project_id":null,"cris_id":null},{"name":"Guinée Conakry","category":"verde","lat":9.537029,"lng":-13.67847,"project_id":null,"cris_id":null},{"name":"Guinée-Bissau, Cacheu, Oio, Quinara, Tombali et Bolama","category":"verde","lat":12.26898,"lng":-16.16511,"project_id":null,"cris_id":null},{"name":"Telkuk, Sudan","category":"verde","lat":17.4033333,"lng":37.2402778,"project_id":null,"cris_id":null},{"name":"Hantam Karoo District, Northern Cape Province, Republic of South Africa","category":"rosso","lat":-30.6514499,"lng":21.98113,"project_id":null,"cris_id":null},{"name":"Haute Guinée.","category":"verde","lat":12.949345,"lng":-14.4723301,"project_id":null,"cris_id":null},{"name":"Rwanda, Kamonyi, Gitarama","category":"rosso","lat":-2.076093,"lng":29.7575,"project_id":null,"cris_id":null},{"name":"Kamuli, Uganda","category":"rosso","lat":0.9450000000000001,"lng":33.125,"project_id":null,"cris_id":null},{"name":"Karusi, Burundi","category":"verde","lat":-3.100096,"lng":30.163019,"project_id":null,"cris_id":null},{"name":"Kasinthula, Chikwawa District, Southern Region, Malawi","category":"blu","lat":-16.1958446,"lng":34.7740793,"project_id":null,"cris_id":null},{"name":"Kassala, Sudan","category":"verde","lat":15.45,"lng":36.4,"project_id":null,"cris_id":null},{"name":"Kenya","category":"verde","lat":-0.023559,"lng":37.906193,"project_id":null,"cris_id":null},{"name":"Kenya","category":"verde","lat":-0.023559,"lng":37.906193,"project_id":null,"cris_id":null},{"name":"Kenya, Msambweni","category":"rosso","lat":-4.463744,"lng":39.4735025,"project_id":null,"cris_id":null},{"name":"Kenya, Nairobi, Kisumu","category":"verde","lat":-0.125065,"lng":34.7930664,"project_id":null,"cris_id":null},{"name":"Kitui, Eastern Province","category":"rosso","lat":-1.3252377,"lng":38.0035696,"project_id":null,"cris_id":null},{"name":"Koinadugu, Wara Wara Yagala, Sengbe, Folosaba Dembelia, Dembelia Sinkunia, Kasonko.","category":"verde","lat":9.5308619,"lng":-11.5248055,"project_id":null,"cris_id":null},{"name":"Kolda, Sédhiou, Vélingara","category":"rosso","lat":12.835773,"lng":-15.171606,"project_id":null,"cris_id":null},{"name":"Ziguinchor","category":"rosso","lat":12.57994,"lng":-16.2839509,"project_id":null,"cris_id":null},{"name":"Kouritenga","category":"verde","lat":12.1631813,"lng":-0.2244662,"project_id":null,"cris_id":null},{"name":"Lesotho","category":"verde","lat":-29.609988,"lng":28.233608,"project_id":null,"cris_id":null},{"name":"Lesotho","category":"verde","lat":-29.609988,"lng":28.233608,"project_id":null,"cris_id":null},{"name":"Lesotho","category":"verde","lat":-29.609988,"lng":28.233608,"project_id":null,"cris_id":null},{"name":"Liberia, Gbarpolu","category":"verde","lat":7.495263700000001,"lng":-10.0807298,"project_id":null,"cris_id":null},{"name":"Liberia, Maryland, River Gee, Grand Kru","category":"verde","lat":4.7613862,"lng":-8.2212979,"project_id":null,"cris_id":null},{"name":"Liberia, Monrovia, Tubmanburg","category":"verde","lat":6.300774,"lng":-10.79716,"project_id":null,"cris_id":null},{"name":"Liberia, Montserrado, Old Road, Congo Town, Paynesville, Gardnersville, Barnersville, Johnsonville","category":"verde","lat":6.277974100000001,"lng":-10.7469825,"project_id":null,"cris_id":null},{"name":"Juba,  Somalia","category":"verde","lat":4.177099999999999,"lng":42.0809,"project_id":null,"cris_id":null},{"name":"Madagascar","category":"verde","lat":-18.766947,"lng":46.869107,"project_id":null,"cris_id":null},{"name":"Madagascar","category":"verde","lat":-18.766947,"lng":46.869107,"project_id":null,"cris_id":null},{"name":"Madagascar","category":"verde","lat":-18.766947,"lng":46.869107,"project_id":null,"cris_id":null},{"name":"MADAGASCAR - Région VATOVAVY FITOVINANY","category":"verde","lat":-21.3030421,"lng":47.6377134,"project_id":null,"cris_id":null},{"name":"Maekel, Eritrea","category":"rosso","lat":15.3551409,"lng":38.8623683,"project_id":null,"cris_id":null},{"name":"Malawi,  Balaka District, Msamala","category":"rosso","lat":-15.0506595,"lng":35.0828588,"project_id":null,"cris_id":null},{"name":"Malawi, Blantyre, Balaka","category":"verde","lat":-15.7861111,"lng":35.0058333,"project_id":null,"cris_id":null},{"name":"Malawi, Blantyre, Zomba, Chiradzulu, Thyolo, Mulanje","category":"verde","lat":-15.7861111,"lng":35.0058333,"project_id":null,"cris_id":null},{"name":"Malawi, Chikwawa, Blantyre, Dwangwa.","category":"blu","lat":-16.035,"lng":34.801,"project_id":null,"cris_id":null},{"name":"Malawi, Dedza District, Kasumbu","category":"rosso","lat":-14.3,"lng":34.35,"project_id":null,"cris_id":null},{"name":"Malawi, Kasungu, Njomba, Kaomba, Mwase","category":"verde","lat":-13.0333333,"lng":33.4833333,"project_id":null,"cris_id":null},{"name":"Malawi, Lilongwe, Zomba, Phalombe, Chikowi, Mwambo, Mkhumba & Nazombe","category":"verde","lat":-13.9833333,"lng":33.7833333,"project_id":null,"cris_id":null},{"name":"Malawi, Phalombe District, Mkhumba","category":"rosso","lat":-15.7633303,"lng":35.6587503,"project_id":null,"cris_id":null},{"name":"Mali,  Mopti, Bandiagara, Bara Sara, Dimanati, Dourou et Kendié.","category":"verde","lat":14.34449,"lng":-3.605345,"project_id":null,"cris_id":null},{"name":"MALI, Gao, Sikasso","category":"verde","lat":16.273291,"lng":-0.050689,"project_id":null,"cris_id":null},{"name":"Mali, Kayes, Sikasso, Bougouni, Yanfolila et Kolondiéba","category":"rosso","lat":14.455435,"lng":-11.4374369,"project_id":null,"cris_id":null},{"name":"Mali, Mopti,Djenné et Mopti, Koro, Bandiagara, Wadouba, Soroly, Doucombo, Dnadoli, Sangha, Pelou, Mietouma","category":"verde","lat":13.9053952,"lng":-4.5559954,"project_id":null,"cris_id":null},{"name":"Mali, Ségou, Mopti, Gao, Tombouctou et Bamako","category":"verde","lat":13.440597,"lng":-6.265321999999999,"project_id":null,"cris_id":null},{"name":"Mali, Sikasso, Kolondiéba, Ngolodiana, Mena, Kébila, Bougoula, Farako","category":"verde","lat":11.0833333,"lng":-6.899999999999999,"project_id":null,"cris_id":null},{"name":"MAN, yvory coast","category":"blu","lat":7.399999999999999,"lng":-7.55,"project_id":null,"cris_id":null},{"name":"Mandoul, Barh-Sara","category":"rosso","lat":8.248678,"lng":17.8583868,"project_id":null,"cris_id":null},{"name":"Maputo, Gaza","category":"verde","lat":-22.7142591,"lng":32.0482091,"project_id":null,"cris_id":null},{"name":"Mauritanie, Gorgol,  Kaedi","category":"verde","lat":16.151739,"lng":-13.49702,"project_id":null,"cris_id":null},{"name":"Mauritanie, Brakna","category":"verde","lat":17.2317561,"lng":-13.1740348,"project_id":null,"cris_id":null},{"name":"Mauritanie, Guidimakha, Assaba","category":"verde","lat":16.57429,"lng":-11.9686242,"project_id":null,"cris_id":null},{"name":"Mauritanie, Guidimakha","category":"verde","lat":15.2557331,"lng":-12.2547919,"project_id":null,"cris_id":null},{"name":"Mozambique Gaza ","category":"verde","lat":-23.0221928,"lng":32.7181375,"project_id":null,"cris_id":null},{"name":"Mozambique, Nampula, Cabo Delgado","category":"verde","lat":-15.1166667,"lng":39.26666669999999,"project_id":null,"cris_id":null},{"name":"Cunene, Benguela, Huambo","category":"verde","lat":-12.7666667,"lng":15.7333333,"project_id":null,"cris_id":null},{"name":"NIGER, Zinder, Agadez, Tillabéry, Niamey","category":"verde","lat":13.8052778,"lng":8.988333299999999,"project_id":null,"cris_id":null},{"name":"Nord Kivu, Butembo","category":"blu","lat":0.127752,"lng":29.287371,"project_id":null,"cris_id":null},{"name":"Nord,Côte d'Ivoire","category":"rosso","lat":50.5480897,"lng":3.0278556,"project_id":null,"cris_id":null},{"name":"North Bombali, Sierra Leone","category":"verde","lat":9.2475837,"lng":-12.1632718,"project_id":null,"cris_id":null},{"name":"Northern Red Sea Region, Eritrea","category":"verde","lat":16.2583997,"lng":38.8205454,"project_id":null,"cris_id":null},{"name":"Nya Pendé, Tchad","category":"verde","lat":8.4299512,"lng":16.6404278,"project_id":null,"cris_id":null},{"name":"Pader District","category":"rosso","lat":2.9430682,"lng":32.8084496,"project_id":null,"cris_id":null},{"name":"RD Congo, Kinshasa, plateau Bateke","category":"verde","lat":-4.297638399999999,"lng":15.2469106,"project_id":null,"cris_id":null},{"name":"RD Congo, province du Bas Congo, Kimpese","category":"verde","lat":-4.409078399999999,"lng":15.3717519,"project_id":null,"cris_id":null},{"name":"RD Congo, Sud Kivu","category":"blu","lat":-3.3827202,"lng":29.3682476,"project_id":null,"cris_id":null},{"name":"Katanga","category":"blu","lat":-8.8851145,"lng":26.419389,"project_id":null,"cris_id":null},{"name":"Androy","category":"verde","lat":-23.683333,"lng":44.05,"project_id":null,"cris_id":null},{"name":"Région de Weima, District de Tadjourah, République de Djibouti","category":"rosso","lat":11.9338885,"lng":42.3938375,"project_id":null,"cris_id":null},{"name":"Région des Savanes - Togo","category":"rosso","lat":10.5291781,"lng":0.5257822999999999,"project_id":null,"cris_id":null},{"name":"Sudan, Kordofane","category":"verde","lat":13.083333,"lng":30.35,"project_id":null,"cris_id":null},{"name":"Republica Democrática de São Tomé e Príncipe","category":"verde","lat":0.18636,"lng":6.613080999999999,"project_id":null,"cris_id":null},{"name":"République Centrafricaine - Sibut (Kémo)","category":"verde","lat":5.7333333,"lng":19.0833333,"project_id":null,"cris_id":null},{"name":"République Centrafricaine, Ouham Pendé","category":"verde","lat":6.4850984,"lng":16.1580937,"project_id":null,"cris_id":null},{"name":"République Centrafricaine, Ouham Pende, Bangui","category":"rosso","lat":6.4850984,"lng":16.1580937,"project_id":null,"cris_id":null},{"name":"Rift Valley, Central Kenya","category":"rosso","lat":-0.9076216,"lng":36.3529015,"project_id":null,"cris_id":null},{"name":"Rumphi, Malawi","category":"verde","lat":-11.01995,"lng":33.85741,"project_id":null,"cris_id":null},{"name":"Rwanda","category":"rosso","lat":-1.940278,"lng":29.873888,"project_id":null,"cris_id":null},{"name":"Sanaag and Karkaar Regions, Somaliland","category":"verde","lat":10.3938218,"lng":47.7637565,"project_id":null,"cris_id":null},{"name":"Sanmatenga, Bam, Ganzourgou, Oubritenga, Kongoussi","category":"verde","lat":13.3565304,"lng":-1.0586135,"project_id":null,"cris_id":null},{"name":"Sao Tomé e Príncipe","category":"verde","lat":0.18636,"lng":6.613080999999999,"project_id":null,"cris_id":null},{"name":"Sella Limba, Sanda Loko and Gbanti Kamaranka Chiefdoms, Bombali District, Sierra Leone","category":"verde","lat":9.2475837,"lng":-12.1632718,"project_id":null,"cris_id":null},{"name":"Senegal","category":"verde","lat":14.497401,"lng":-14.452362,"project_id":null,"cris_id":null},{"name":"Sénégal, Fatick, Kaolack, Kaffrine et Kolda","category":"verde","lat":14.14322,"lng":-16.09609,"project_id":null,"cris_id":null},{"name":"Sido, Région Moyen Chari, Tchad","category":"blu","lat":8.246493,"lng":18.7140639,"project_id":null,"cris_id":null},{"name":"Sierra Leone","category":"verde","lat":8.460555,"lng":-11.779889,"project_id":null,"cris_id":null},{"name":"Simbaru, Wandor Chiefdoms, Kenema, Sierra Leone","category":"verde","lat":7.877183,"lng":-11.18523,"project_id":null,"cris_id":null},{"name":"Sissili,  Tô , Nebialianayou, Bieha, Bourra, Silly, Léo.","category":"rosso","lat":11.2441219,"lng":-2.2236667,"project_id":null,"cris_id":null},{"name":"Somalia","category":"blu","lat":5.152149,"lng":46.199616,"project_id":null,"cris_id":null},{"name":"Somalia","category":"blu","lat":5.152149,"lng":46.199616,"project_id":null,"cris_id":null},{"name":"Southeast Liberia","category":"verde","lat":6.428055,"lng":-9.429499000000002,"project_id":null,"cris_id":null},{"name":"Sudan, Warrap, Gogrial","category":"verde","lat":8.53,"lng":28.1,"project_id":null,"cris_id":null},{"name":"Sud Kivu,  Bukavu","category":"rosso","lat":-2.515364,"lng":28.845079,"project_id":null,"cris_id":null},{"name":"Sud Kivu, République démocratique du Congo","category":"blu","lat":-3.011658,"lng":28.299435,"project_id":null,"cris_id":null},{"name":"Sudan, Kassala State, Hamesh Koreib","category":"verde","lat":15.45,"lng":36.4,"project_id":null,"cris_id":null},{"name":"Sudan, Kassala, Sieteet, Hamashkorib.","category":"rosso","lat":15.45,"lng":36.4,"project_id":null,"cris_id":null},{"name":"Sudan, Khartoum State, Kerari locality, El Fateh","category":"verde","lat":15.550101,"lng":32.532241,"project_id":null,"cris_id":null},{"name":"Swaziland, Hhohho, Tinkhundla","category":"rosso","lat":-26.1365662,"lng":31.3541631,"project_id":null,"cris_id":null},{"name":"Tanzania","category":"blu","lat":-6.369028,"lng":34.888822,"project_id":null,"cris_id":null},{"name":"Tanzania","category":"blu","lat":-6.369028,"lng":34.888822,"project_id":null,"cris_id":null},{"name":"Tanzania","category":"verde","lat":-6.369028,"lng":34.888822,"project_id":null,"cris_id":null},{"name":"Tanzania","category":"verde","lat":-6.369028,"lng":34.888822,"project_id":null,"cris_id":null},{"name":"Tanzania","category":"verde","lat":-6.369028,"lng":34.888822,"project_id":null,"cris_id":null},{"name":"Tanzania, Lindi, Mtwara, Masasi, Nanyumbu, Kigoma, Kibondo, Iringa Kilolo  Ethiopia, Offa  Burundi, Kirundo","category":"rosso","lat":-10.00208,"lng":39.706959,"project_id":null,"cris_id":null},{"name":"Tchaoudjo, Assoli, Sotouboua, Bassar, Togo.","category":"rosso","lat":9.260728,"lng":0.789315,"project_id":null,"cris_id":null},{"name":"TIMOR LESTE","category":"verde","lat":-8.874217,"lng":125.727539,"project_id":null,"cris_id":null},{"name":"TOGO","category":"verde","lat":8.619543,"lng":0.824782,"project_id":null,"cris_id":null},{"name":"Togo, Karah","category":"rosso","lat":9.5488889,"lng":1.1905556,"project_id":null,"cris_id":null},{"name":"Tonkolili District Sierra Leone","category":"verde","lat":8.7389416,"lng":-11.7979613,"project_id":null,"cris_id":null},{"name":"Tonkolili District, Sierra Leone","category":"verde","lat":8.7389416,"lng":-11.7979613,"project_id":null,"cris_id":null},{"name":"Tsholotsho, Lupane, Nkayi, Matabeleland, Gwanda, Beitbridge, Matabeleland, Chivi, Masvingo Province, Zimbabwe","category":"verde","lat":-20.3594165,"lng":30.4357631,"project_id":null,"cris_id":null},{"name":"West Darfur, Sudan","category":"verde","lat":12.8463561,"lng":23.0011989,"project_id":null,"cris_id":null},{"name":"Gambia","category":"rosso","lat":13.443182,"lng":-15.310139,"project_id":null,"cris_id":null},{"name":"Zimbabwe","category":"verde","lat":-19.015438,"lng":29.154857,"project_id":null,"cris_id":null},{"name":"Zimbabwe","category":"verde","lat":-19.015438,"lng":29.154857,"project_id":null,"cris_id":null},{"name":"Zimbabwe","category":"verde","lat":-19.015438,"lng":29.154857,"project_id":null,"cris_id":null},{"name":"Zimbabwe","category":"rosso","lat":-19.015438,"lng":29.154857,"project_id":null,"cris_id":null},{"name":"Zimbabwe,  Midlands, Gokwe South","category":"verde","lat":-18.2109666,"lng":28.4863963,"project_id":null,"cris_id":null},{"name":"Zimbabwe, Hwange, Binga","category":"verde","lat":-18.368719,"lng":26.501539,"project_id":null,"cris_id":null},{"name":"Zimbabwe, Manicaland  Midlands, Makoni, Lower Gweru & Kwekwe","category":"verde","lat":-18.9216386,"lng":32.174605,"project_id":null,"cris_id":null},{"name":"Zimbabwe, Manicaland Province","category":" Chipinge District,verde","lat":-18.9216386,"lng":32.174605,"project_id":null,"cris_id":null},{"name":"Zimbabwe, Manicaland, Chipinge","category":"verde","lat":-20.1914261,"lng":32.6333973,"project_id":null,"cris_id":null},{"name":"Zimbabwe, Manicaland, Chipinge","category":"verde","lat":-20.1914261,"lng":32.6333973,"project_id":null,"cris_id":null},{"name":"Zimbabwe, Manicaland, Chipinge","category":"verde","lat":-20.1914261,"lng":32.6333973,"project_id":null,"cris_id":null},{"name":"Zimbabwe, Manicaland, Masvingo Districts, Chipinge, Buhera, Chiredzi, Masvingo, Zimbabwe","category":"verde","lat":-21.05,"lng":31.666667,"project_id":null,"cris_id":null},{"name":"Zimbabwe, Mashona","category":"rosso","lat":-20.1053216,"lng":28.5107222,"project_id":null,"cris_id":null},{"name":"Zimbabwe, Matabeleland,  Insiza, Gwanda","category":"verde","lat":-20.940121,"lng":29.015711,"project_id":null,"cris_id":null},{"name":"Zimbabwe, Matabeleland, Bulawayo","category":"verde","lat":-20.17219,"lng":28.58116,"project_id":null,"cris_id":null},{"name":"Zimbabwe, Kwekwe, Gweru","category":"verde","lat":-18.7768107,"lng":28.973828,"project_id":null,"cris_id":null},{"name":"Zimbabwe, Midlands, Masvingo, Gutu, Chirumanzu,  Zvishavane","category":"verde","lat":-20.330509,"lng":30.04729099999999,"project_id":null,"cris_id":null},{"name":"Zimbabwe, Bubi","category":"verde","lat":-21.9671347,"lng":30.7877902,"project_id":null,"cris_id":null},{"name":"Zomba, Malawi","category":"verde","lat":-15.3833333,"lng":35.3333333,"project_id":null,"cris_id":null},{"name":"Zorzor, Salayea districts, Lofa, Liberia","category":"verde","lat":7.775242100000001,"lng":-9.4256031,"project_id":null,"cris_id":null},{"name":"Guinee, Haute Guinee","category":"verde","lat":10.2819536,"lng":-10.0807298,"project_id":null,"cris_id":null},{"name":"Benin,  Oueme, Zou, Alibori","category":"verde","lat":10.9681093,"lng":2.7779813,"project_id":null,"cris_id":null},{"name":"Benin, Atacora Donga","category":"verde","lat":10.906616,"lng":1.6825925,"project_id":null,"cris_id":null},{"name":"Boulgou, Kouritenga","category":"verde","lat":11.4336766,"lng":-0.3748354,"project_id":null,"cris_id":null},{"name":"Cameroon, Makenene","category":"rosso","lat":4.8839199,"lng":10.7943639,"project_id":null,"cris_id":null},{"name":"Ghana, Upper West","category":"verde","lat":10.2529757,"lng":-2.1450245,"project_id":null,"cris_id":null},{"name":"Mapungubwe, Limpopo","category":"verde","lat":-22.202503,"lng":29.363537,"project_id":null,"cris_id":null},{"name":" Ethiopia, Tigray, Hintalo, Wajirat","category":"rosso","lat":13.3162908,"lng":39.4592669,"project_id":null,"cris_id":null},{"name":"Mali, Mopti","category":"rosso","lat":14.48319,"lng":-4.183031,"project_id":null,"cris_id":null},{"name":"Bobo Dioulasso","category":"rosso","lat":11.1781,"lng":-4.291773,"project_id":null,"cris_id":null},{"name":"Passora","category":"verde","lat":37.933333,"lng":-107.785,"project_id":null,"cris_id":null},{"name":"Bandundu","category":"verde","lat":-3.3152339,"lng":17.385599,"project_id":null,"cris_id":null},{"name":"Sudan, Raga","category":"verde","lat":8.6452399,"lng":25.2837585,"project_id":null,"cris_id":null},{"name":"Guinea, Kouroussa","category":"rosso","lat":10.6528,"lng":-9.8851,"project_id":null,"cris_id":null},{"name":" Ethiopia, Tigray, Wokro ","category":"verde","lat":13.7833333,"lng":39.6,"project_id":null,"cris_id":null},{"name":"Somalia, Togdheer, Sanag ","category":"blu","lat":9.4460587,"lng":45.29938620000001,"project_id":null,"cris_id":null},{"name":"Zimbabwe, Bikita,  Masvingo","category":"verde","lat":-20.0957389,"lng":31.615219,"project_id":null,"cris_id":null},{"name":"Zimbabwe,  Manicaland","category":"verde","lat":-18.9216386,"lng":32.174605,"project_id":null,"cris_id":null}]