[{"location_name":"   Montevideo, Uruguay","color":"red","group_number":"1","lat":-34.8836111,"lng":-56.1819444},{"location_name":"Florida, Uruguay","color":"yellow","group_number":"1","lat":-34.1,"lng":-56.2166667},{"location_name":"Rosario, Argentina","color":"yellow","group_number":"1","lat":-32.9507408,"lng":-60.66650010000001},{"location_name":"San Salvador, El Salvador","color":"yellow","group_number":"1","lat":13.706881,"lng":-89.20181},{"location_name":"La Paz, Bolivia","color":"yellow","group_number":"1","lat":-16.4990099,"lng":-68.146248},{"location_name":"Bilbao, Spain","color":"yellow","group_number":"1","lat":43.2566901,"lng":-2.9240616},{"location_name":"Santa Cruz de Tenerife, Spain","color":"yellow","group_number":"1","lat":28.4636296,"lng":-16.2518467},{"location_name":"Esquipulas, Guatemala","color":"red","group_number":"2","lat":14.561913,"lng":-89.35277099999999},{"location_name":"   Equipulas Guatemala","color":"dark_green","group_number":"2","lat":14.561913,"lng":-89.35277099999999},{"location_name":"   Santa Catarina Mita, Guatemala","color":"dark_green","group_number":"2","lat":14.44686,"lng":-89.74391899999999},{"location_name":"   Jocotan, Guatemala","color":"dark_green","group_number":"2","lat":14.8210914,"lng":-89.3894291},{"location_name":"   Villa de San Ignacio, El Salvador","color":"dark_green","group_number":"2","lat":25.5226361,"lng":-103.3982659},{"location_name":"   Metapan, El Salvador","color":"dark_green","group_number":"2","lat":14.33235,"lng":-89.44783799999999},{"location_name":"   Ocotepeque, Honduras","color":"dark_green","group_number":"2","lat":14.4333333,"lng":-89.1833333},{"location_name":"   Milan, Italy","color":"green","group_number":"2","lat":45.4654542,"lng":9.186516},{"location_name":"   Huelva, Spain","color":"green","group_number":"2","lat":37.261421,"lng":-6.9447224},{"location_name":"  Amsterdam, Netherlands","color":"light_blue","group_number":"3","lat":52.3702157,"lng":4.895167900000001},{"location_name":"  Puerto Cortés, Honduras","color":"red","group_number":"3","lat":15.825072,"lng":-87.92857769999999},{"location_name":"  Tela, Honduras","color":"yellow","group_number":"3","lat":15.77293,"lng":-87.45594},{"location_name":"  Omoa, Honduras","color":"yellow","group_number":"3","lat":15.77295,"lng":-88.032082},{"location_name":"  Puerto Barrios, Guatemala","color":"yellow","group_number":"3","lat":15.7166667,"lng":-88.58333329999999},{"location_name":"  Santa Tecla, El Salvador","color":"red","group_number":"4","lat":13.6833333,"lng":-89.2833333},{"location_name":"  Quito, Ecuador","color":"yellow","group_number":"4","lat":-0.2170967,"lng":-78.5169882},{"location_name":"  Saint Denis, France","color":"yellow","group_number":"4","lat":48.936181,"lng":2.357443},{"location_name":"  Arezzo, Italy","color":"red","group_number":"5","lat":43.4669678,"lng":11.8823076},{"location_name":"Lille, France","color":"yellow","group_number":"5","lat":50.62925,"lng":3.057256},{"location_name":"Arica, Chile","color":"yellow","group_number":"5","lat":-18.477044,"lng":-70.314533},{"location_name":"Cuenca, Ecuador","color":"red","group_number":"5","lat":-2.9001285,"lng":-79.00589649999999},{"location_name":"Lago Agrio, Ecuador","color":"yellow","group_number":"5","lat":0.0847222,"lng":-76.8827778},{"location_name":"General Pico, Argentina","color":"yellow","group_number":"5","lat":-35.6569519,"lng":-63.75454709999999},{"location_name":"Santiago de Surco, Peru","color":"red","group_number":"5","lat":-12.15,"lng":-77.0166667},{"location_name":"   Arezzo, Italy","color":"light_blue","group_number":"5","lat":43.4669678,"lng":11.8823076},{"location_name":" Buenos Aires, Argentina","color":"green","group_number":"5","lat":-34.6037232,"lng":-58.3815931},{"location_name":"Paraná, Brazil","color":"green","group_number":"6","lat":-25.2520888,"lng":-52.0215415},{"location_name":"Medellin, Colombia","color":"green","group_number":"6","lat":6.235925,"lng":-75.575137},{"location_name":"Bologna, Italy","color":"red","group_number":"6","lat":44.494887,"lng":11.3426163},{"location_name":"General Pueyrredón, Argentina","color":"yellow","group_number":"6","lat":-37.9475294,"lng":-57.7799935},{"location_name":"Mar de Plata, Argentina","color":"yellow","group_number":"6","lat":-34.6194496,"lng":-58.6477471},{"location_name":"Roma, Italy","color":"yellow","group_number":"6","lat":41.8929163,"lng":12.4825199},{"location_name":"Ribera Alta, Spain","color":"yellow","group_number":"6","lat":39.1946152,"lng":-0.563609},{"location_name":"Bologna, Italy","color":"light_blue","group_number":"6","lat":44.494887,"lng":11.3426163},{"location_name":"Roma, Italy","color":"light_blue","group_number":"6","lat":41.8929163,"lng":12.4825199},{"location_name":" Buenos Aires, Argentina","color":"green","group_number":"6","lat":-34.6037232,"lng":-58.3815931},{"location_name":"Ancona, Italy","color":"green","group_number":"6","lat":43.6158299,"lng":13.518915},{"location_name":"Borba, Portugal","color":"red","group_number":"7","lat":38.8068177,"lng":-7.458405000000001},{"location_name":"Alegrete, Brazil","color":"yellow","group_number":"7","lat":-29.7906476,"lng":-55.7954085},{"location_name":"Quaraí, Brazil","color":"yellow","group_number":"7","lat":-30.3845133,"lng":-56.4488086},{"location_name":"Rosário do Sul, Brazil","color":"yellow","group_number":"7","lat":-30.2519693,"lng":-54.92264849999999},{"location_name":"Santana do Livramento, Brazil","color":"yellow","group_number":"7","lat":-30.8882053,"lng":-55.5320177},{"location_name":"Maronna, Brazil","color":"light_blue","group_number":"7","lat":null,"lng":null},{"location_name":"Rivera, Uruguay","color":"green","group_number":"7","lat":-30.905337,"lng":-55.550759},{"location_name":"Venice, Italy","color":"light_blue","group_number":"8","lat":45.4408474,"lng":12.3155151},{"location_name":"Venice, Italy","color":"green","group_number":"8","lat":45.4408474,"lng":12.3155151},{"location_name":"San Juan, Argentina","color":"green","group_number":"8","lat":-31.5272732,"lng":-68.5214081},{"location_name":"Misiones, Paraguay","color":"green","group_number":"8","lat":-26.9377146,"lng":-54.4342138},{"location_name":"Rio Grande do Sul, Brazil","color":"green","group_number":"8","lat":-29.534505,"lng":-53.3906074},{"location_name":"Michoacán de Ocampo, Mexico","color":"red","group_number":"9","lat":19.5665192,"lng":-101.7068294},{"location_name":"Norte Paceño Tropical, Bolivia","color":"dark_green","group_number":"9","lat":null,"lng":null},{"location_name":"Huehuetenango, Guatemala","color":"dark_green","group_number":"9","lat":15.3147222,"lng":-91.4761111},{"location_name":"Tucumán, Argentina","color":"yellow","group_number":"9","lat":-26.8082848,"lng":-65.2175903},{"location_name":"Tuma La Dalia, Nicaragua","color":"yellow","group_number":"9","lat":13.1385897,"lng":-85.7334745},{"location_name":"San Sebastián de los Reyes, Spain","color":"yellow","group_number":"9","lat":40.549512,"lng":-3.620997},{"location_name":"Ciudad de Mexico, Mexico)","color":"light_blue","group_number":"9","lat":19.4326077,"lng":-99.133208},{"location_name":"·  Department of Hautes-Pyrénées  , France","color":"green","group_number":"9","lat":43.0193924,"lng":0.1494988},{"location_name":"Stuttgart , Germany","color":"red","group_number":"10","lat":48.7754181,"lng":9.181758799999999},{"location_name":"Sao Paulo, Brazil","color":"yellow","group_number":"10","lat":-23.5505199,"lng":-46.63330939999999},{"location_name":" Rio de Janeiro, Brazil","color":"yellow","group_number":"10","lat":-22.9133954,"lng":-43.20071009999999},{"location_name":"Guadalajara, Mexico","color":"yellow","group_number":"10","lat":20.67359,"lng":-103.343803},{"location_name":"Bogotá, Colombia","color":"yellow","group_number":"10","lat":4.598055599999999,"lng":-74.0758333},{"location_name":"Quito, Ecuador","color":"yellow","group_number":"10","lat":-0.2170967,"lng":-78.5169882},{"location_name":"Stuttgart, Germany","color":"light_blue","group_number":"10","lat":48.7754181,"lng":9.181758799999999},{"location_name":"Sao Paulo, Brazil","color":"light_blue","group_number":"10","lat":-23.5505199,"lng":-46.63330939999999},{"location_name":"Chihauhua, Mexico","color":"green","group_number":"10","lat":28.6352778,"lng":-106.0888889},{"location_name":"Palermo, Italy","color":"red","group_number":"11","lat":38.1156879,"lng":13.3612671},{"location_name":"Cochabamba, Bolivia","color":"dark_green","group_number":"11","lat":-17.38414,"lng":-66.166702},{"location_name":"Zaragoza, Spain","color":"dark_green","group_number":"11","lat":41.6487908,"lng":-0.8895811},{"location_name":"Sacaba, Vinto, Bolivia","color":"yellow","group_number":"11","lat":null,"lng":null},{"location_name":"Buenos Aires, Argentina","color":"green","group_number":"11","lat":-34.6037232,"lng":-58.3815931},{"location_name":"Asuncion, Paraguay","color":"green","group_number":"11","lat":-25.2821972,"lng":-57.63509999999999},{"location_name":"Frosinone, Italy","color":"red","group_number":"12","lat":41.6396009,"lng":13.3426341},{"location_name":"Calacoto, Bolivia","color":"dark_green","group_number":"12","lat":-16.5429803,"lng":-68.08501249999999},{"location_name":"San Pedro de Quemes, Bolivia ","color":"dark_green","group_number":"12","lat":-20.7470643,"lng":-68.0502605},{"location_name":"Purmamarca, Argentina ","color":"dark_green","group_number":"12","lat":-23.7466359,"lng":-65.4992451},{"location_name":"Tarata, Peru","color":"dark_green","group_number":"12","lat":-17.4776078,"lng":-70.0339387},{"location_name":"Buenos Aires, Argentina","color":"light_blue","group_number":"12","lat":-34.6037232,"lng":-58.3815931},{"location_name":"Bolzano, Italy","color":"green","group_number":"12","lat":46.4982953,"lng":11.3547582},{"location_name":"Irún, Spain","color":"red","group_number":"13","lat":43.3396649,"lng":-1.791888},{"location_name":"   Santa Rosa de Copan, Honduras","color":"yellow","group_number":"13","lat":14.7666667,"lng":-88.7833333},{"location_name":"   Zapotlán el Grande, Mexico","color":"yellow","group_number":"13","lat":19.7159809,"lng":-103.4705055},{"location_name":"   Arica Parinacota, Chile","color":"green","group_number":"13","lat":-18.5940485,"lng":-69.4784541},{"location_name":"   Tacna, Peru","color":"green","group_number":"13","lat":-18.01757,"lng":-70.250969},{"location_name":"   Valladolid, Spain","color":"green","group_number":"13","lat":41.652251,"lng":-4.724532099999999},{"location_name":"   Pernambuco, Brazil ","color":"red","group_number":"14","lat":-8.8137173,"lng":-36.954107},{"location_name":"   Bergamo, Italy","color":"yellow","group_number":"14","lat":45.6982642,"lng":9.6772698},{"location_name":"   Loreto, Peru","color":"yellow","group_number":"14","lat":-4.232472899999999,"lng":-74.21793260000001},{"location_name":"   Bergamo, Italy","color":"light_blue","group_number":"14","lat":45.6982642,"lng":9.6772698},{"location_name":"   Paysandú, Uruguay","color":"green","group_number":"14","lat":-32.3213889,"lng":-58.07555559999999},{"location_name":"   Ponta Porã, Brazil","color":"red","group_number":"15","lat":-22.5300773,"lng":-55.7208391},{"location_name":"Pedro Juan Caballero, Paraguay","color":"yellow","group_number":"15","lat":-22.53274,"lng":-55.747681},{"location_name":"Madrid, Spain","color":"light_blue","group_number":"15","lat":40.4167754,"lng":-3.7037902},{"location_name":"Malaga, Spain","color":"green","group_number":"15","lat":36.721261,"lng":-4.4212655},{"location_name":"Alcorcón, Spain","color":"red","group_number":"16","lat":40.3468454,"lng":-3.8278443},{"location_name":"San Joao de Madeira, Portugal","color":"yellow","group_number":"16","lat":40.90052379999999,"lng":-8.490671599999999},{"location_name":"Valparaíso, Mexico","color":"yellow","group_number":"16","lat":22.772275,"lng":-103.568396},{"location_name":"Pimampiro, Ecuador","color":"yellow","group_number":"16","lat":0.3907438,"lng":-77.94102509999999},{"location_name":" Curahuara de Carangas, Bolivia","color":"yellow","group_number":"16","lat":-17.8464199,"lng":-68.40946199999999},{"location_name":"Pimampiro, Ecuador","color":"light_blue","group_number":"16","lat":0.3907438,"lng":-77.94102509999999},{"location_name":"Paysandú, Uruguay","color":"green","group_number":"16","lat":-32.3213889,"lng":-58.07555559999999},{"location_name":"Curahuara, Bolivia","color":"light_blue","group_number":"16","lat":-17.666667,"lng":-68.033333},{"location_name":"Barcelona, Spain","color":"red","group_number":"17","lat":41.3850639,"lng":2.1734035},{"location_name":"San Salvador, El Salvador","color":"yellow","group_number":"17","lat":13.706881,"lng":-89.20181},{"location_name":"Callao, Peru","color":"yellow","group_number":"17","lat":-12.0333333,"lng":-77.13333329999999},{"location_name":"Managua, Nicaragua","color":"yellow","group_number":"17","lat":12.1363889,"lng":-86.25138890000001},{"location_name":"L’Hospitalet de Llobregat, Spain","color":"red","group_number":"18","lat":41.3656268,"lng":2.1156059},{"location_name":"La Paz, Bolivia","color":"yellow","group_number":"18","lat":-16.4990099,"lng":-68.146248},{"location_name":"Canelones, Uruguay","color":"yellow","group_number":"18","lat":-34.5166667,"lng":-56.2833333},{"location_name":"Santa Tecla El Salvador","color":"yellow","group_number":"18","lat":13.6833333,"lng":-89.2833333},{"location_name":"Barcelona, Spain","color":"green","group_number":"18","lat":41.3850639,"lng":2.1734035},{"location_name":"Firenze, Italy","color":"red","group_number":"19","lat":43.7710332,"lng":11.2480006},{"location_name":"Viña del Mar, Chile","color":"yellow","group_number":"19","lat":-33.024527,"lng":-71.55234},{"location_name":"Habana, Cuba","color":"yellow","group_number":"19","lat":23.1168,"lng":-82.38855699999999},{"location_name":"León, Nicaragua","color":"yellow","group_number":"19","lat":12.5092037,"lng":-86.6611083},{"location_name":"Antigua, Guatemala","color":"yellow","group_number":"19","lat":14.553405,"lng":-90.735255},{"location_name":"Firenze, Italy","color":"light_blue","group_number":"19","lat":43.7710332,"lng":11.2480006},{"location_name":"Punilla, Argentina","color":"green","group_number":"19","lat":-31.4202675,"lng":-64.6214281},{"location_name":"Marseille, France","color":"green","group_number":"19","lat":43.296482,"lng":5.36978},{"location_name":"Santa Fe, Argentina","color":"redred","group_number":"20","lat":-31.6323891,"lng":-60.6994591},{"location_name":"San Salvador, El Salvador","color":"dark_green","group_number":"20","lat":13.706881,"lng":-89.20181},{"location_name":"San Salvador, El Salvador","color":"light_blue","group_number":"20","lat":13.706881,"lng":-89.20181},{"location_name":"Arequipa, Peru","color":"green","group_number":"20","lat":-16.3988222,"lng":-71.5368861},{"location_name":"Barcelona, Spain","color":"green","group_number":"20","lat":41.3850639,"lng":2.1734035},{"location_name":"Barcelona, Spain","color":"blue","group_number":"21","lat":41.3850639,"lng":2.1734035},{"location_name":"Santa Fe, Argentina","color":"blue","group_number":"21","lat":-31.6323891,"lng":-60.6994591},{"location_name":"San Jose, Costa Rica","color":"blue","group_number":"21","lat":9.927128,"lng":-84.08201199999999},{"location_name":"Bogotá, Colombia","color":"blue","group_number":"21","lat":4.598055599999999,"lng":-74.0758333}]