[{"name":"40 communities in the localities of Al Gash, River Atbara and Seteit. Under new Mahalia (divisional) names, the 40 communities are within Rural Nahr Atbara, Rural New Halfa, Rural Khashm al-Girba, Gash, North Delta. Kassala State, Sudan","category":null,"project_id":"158118","cris_id":null,"project_title":"Sustainable Food Security and Poverty Reduction in Kassala State, Sudan","geo_field":"name","lat":15.45,"lng":36.4},{"name":"5 zones prioritaires identifées dans le Gorgol Brakna Assaba hodh el Gharbi","category":null,"project_id":"119228","cris_id":null,"project_title":"Sécurisation de la production agro pastorale dans les zones pré sahéliennes de Mauritanie","geo_field":"name","lat":16.6912149,"lng":-9.5450974},{"name":"ACP","category":null,"project_id":"194005","cris_id":null,"project_title":"GARNT: VALUE CHAINS FOR POVERTY REDUCTION IN THE AGRI-FOODSECTOR-PROBLEM-BASED LEARNING IN HIGHER EDUCATION (VALUELEAD","geo_field":"name","lat":30.750166,"lng":-92.688469},{"name":"acp","category":null,"project_id":"297653","cris_id":null,"project_title":"Increasing Access to Agricultural Finance for Farming Households Through Product Development","geo_field":"name","lat":30.750166,"lng":-92.688469},{"name":"African Union","category":null,"project_id":"288903","cris_id":null,"project_title":"Validation and dissemination of bio intensive eco-friendly management strategies for thrips – a critical constraint to cowpea production in Africa","geo_field":"name","lat":9.0000655,"lng":38.7414003},{"name":"African Union","category":null,"project_id":"288950","cris_id":null,"project_title":"Improving Indigenous Chicken Productivity for Enhanced Livelihood and Food Security in Sub-Saharan Africa (INCIP)","geo_field":"name","lat":9.0000655,"lng":38.7414003},{"name":"African Union","category":null,"project_id":"288953","cris_id":null,"project_title":"Contribution à la relance de la productivité agricole en zones post-conflit et alentours (Sénégal, Gambie et Guinée Bissau)","geo_field":"name","lat":9.0000655,"lng":38.7414003},{"name":"African Union","category":null,"project_id":"288957","cris_id":null,"project_title":"Enhancing food security and well-being of rural African households through improved synergy between Agro-Forestry Systems and Food-crops (AFS 4 Food)","geo_field":"name","lat":9.0000655,"lng":38.7414003},{"name":"Afrique - République démocratique du Congo - Province du Bandundu - Territoires de Feshi et Kahemba","category":null,"project_id":"164569","cris_id":null,"project_title":"Sécurité alimentaire et relance économique dans le sud du Bandundu","geo_field":"name","lat":-3.3152339,"lng":17.385599},{"name":"Afrique - République démocratique du Congo - Province du Sud Kivu - territoire limitrophes à la ville de Bukavu","category":null,"project_id":"164567","cris_id":null,"project_title":"Projet d'appui à la sécurité alimenaire et à la gestion rationnelle des ressources naturelles dans la région du Bushi, RDC","geo_field":"name","lat":-2.515364,"lng":28.845079},{"name":"Amaro special woreda - SNNPR - Ethiopia","category":null,"project_id":"119316","cris_id":null,"project_title":"Consolidation of the Integrated Food Security Programme in Amaro Special Woreda, Ethiopia","geo_field":"name","lat":5.826889,"lng":37.7237678},{"name":"Amhara Region, Districts of Mekit, Ambassel and Werilu","category":null,"project_id":"214172","cris_id":null,"project_title":"Capacity Enhancement Programme to Promote Food Security in Amhara Region, Ethiopia","geo_field":"name","lat":11.3494247,"lng":37.9784585},{"name":"Amuria and Katakwi Districts, Northern Uganda","category":null,"project_id":"284492","cris_id":null,"project_title":"Northern Uganda Agricultural Recovery Programme (ALREP):Increasing Agriculture and Livelihoods Capacity through Production of Productive Infrastructure in Teso Sub-Region","geo_field":"name","lat":2.0153049,"lng":33.6623301},{"name":"AMURIA DISTRICT IN UGANDA","category":null,"project_id":"194339","cris_id":null,"project_title":"NORTHERN UGANDA REHABILITATION PROGRAMME: CIDI/GRANT SUPPORT TO COMMUNITIES AFFECTED BY WAR IN AMURIADISTRICT TO IMPROVE AGRICULTURAL PRODUCTION AND FOOD SECURIT","geo_field":"name","lat":2.03017,"lng":33.6427533},{"name":"Angola, Província: Benguela (Municípios de: Cubal, Ganda, Bocoio, Balombo, Caimbambo). Província de Huambo: (Municípios de: Longonjo, Kaala, Ukuma, Huambo, Londuimbali)","category":null,"project_id":"131547","cris_id":null,"project_title":"Projecto de Combate da Doença de Newcastle","geo_field":"name","lat":-12.8003744,"lng":13.914399},{"name":"Angola/Kwanza Norte","category":null,"project_id":"286454","cris_id":null,"project_title":"Programa de Desminagem na Provincia do Kwanza Norte","geo_field":"name","lat":-9.2398513,"lng":14.6587821},{"name":"Anseba and Debub regions, Eritrea","category":null,"project_id":"84598","cris_id":null,"project_title":"Capacity Building and Community Irrigation Development for Horticulture Farmers in Debub and Anseba Regions in Eritrea","geo_field":"name","lat":15.179384,"lng":39.782334},{"name":"Awrae woreda, degahabur zone of Somali region in Ethiopia","category":null,"project_id":"124407","cris_id":null,"project_title":"Enhanced Food, Forage and Water Security for Pastoralist in Aware Wereda of Degehabour Zone of Somali National Regional State","geo_field":"name","lat":9.145000000000001,"lng":40.489673},{"name":"Bafata-Gabù","category":null,"project_id":"225764","cris_id":null,"project_title":"Valorizacao da Apicultura de Bafata e Gabu","geo_field":"name","lat":12.1588799,"lng":-14.1930918},{"name":"Bale Zone, Oromia Region","category":null,"project_id":"213930","cris_id":null,"project_title":"Food facility for rapid response to soaring food prices","geo_field":"name","lat":6.7606468,"lng":40.3088626},{"name":"Bamenda, Cameroun","category":null,"project_id":"135308","cris_id":null,"project_title":"Support project for production of garden crops and livestock by small scale farmers in the North-West Province of Cameroon.","geo_field":"name","lat":5.958647,"lng":10.14751},{"name":"Bari & Nugal Regions, Puntland","category":null,"project_id":"242796","cris_id":null,"project_title":"Support to Economic Development Programme I: Consolidation of the Puntland Oasis Development Programme","geo_field":"name","lat":41.1171432,"lng":16.8718715},{"name":"Belize, Cayo, Stann Creek and Toledo district","category":null,"project_id":"279074","cris_id":null,"project_title":"Belize Rural Development Project II: Expanding Economic Opportunities through Entrepreneurship and Market Development","geo_field":"name","lat":17.0984445,"lng":-88.94138650000001},{"name":"Benguela","category":null,"project_id":"118741","cris_id":null,"project_title":"Projecto de Apoio ao Relaçamento e ao Desenvolvimento Agricola do Norte Do Cubal. ANGOLA","geo_field":"name","lat":-12.58,"lng":13.4077778},{"name":"BF - Burkina Faso TZ - Tanzania IN - India TPS - All Countries","category":null,"project_id":"304690","cris_id":null,"project_title":"Increasing yields of Millet and Sorghum by a new and sustainable seed technology developed in Sahel","geo_field":"name","lat":20.593684,"lng":78.96288},{"name":"Bindizi, West Darfur,Sudan","category":null,"project_id":"165770","cris_id":null,"project_title":"Towards food security and economic recovery: mitigating the effects of the crisis and sowing seeds for the future development of Darfur","geo_field":"name","lat":12.8463561,"lng":23.0011989},{"name":"Bo District, Pujehun District, Kenema District (all in Sierra Leone)","category":null,"project_id":"168962","cris_id":null,"project_title":"Food Security and Economic Development in the Bo, Pujehun and Kenema Districts (FoSED)","geo_field":"name","lat":8.460555,"lng":-11.779889},{"name":"Boké","category":null,"project_id":"227381","cris_id":null,"project_title":"Projet d’Appui à la Filière Arachide de Boké (AFAB)","geo_field":"name","lat":10.93944,"lng":-14.29668},{"name":"Bong County, LIBERIA","category":null,"project_id":"226860","cris_id":null,"project_title":"Build the capacities of the agriculture sector actors to develop sustainably agriculture and improve livelihoods in Bong County","geo_field":"name","lat":6.829501899999999,"lng":-9.367308399999999},{"name":"Bonthe District, Sierra Leone","category":null,"project_id":"168963","cris_id":null,"project_title":"Bonthe Food Security Project","geo_field":"name","lat":7.527414899999999,"lng":-12.1632718},{"name":"Borana Zone, Ethiopia","category":null,"project_id":"214156","cris_id":null,"project_title":"Building Resilient Pastoralist Communities","geo_field":"name","lat":4.723463199999999,"lng":38.9876741},{"name":"Botswana, Kenya, South Africa and Mauritius.","category":null,"project_id":"307840","cris_id":null,"project_title":"Developing decision support simulation tools based on scientifically validated indigenous/traditional and conventional knowledge for increasing agricultural production and food security in Africa","geo_field":"name","lat":-8.783195,"lng":34.508523},{"name":"Burkina Faso","category":null,"project_id":"57073","cris_id":null,"project_title":"Promotion de l’agro-écologie et de l’éducation environnementale comme voie d’amélioration de la qualité de vie des populations des provinces du Gourma  de la Gnagna et de la Komondjari","geo_field":"name","lat":12.238333,"lng":-1.561593},{"name":"Burkina Faso - Région du Nord et de la Boucle du Mouhoun.","category":null,"project_id":"213086","cris_id":null,"project_title":"Valoriser les productions cerealieres et maraicheres de deux regions de la zone soudano sahelienne au Burkina Faso pour lutter contre les effets de la crise alimentaire sur la population rurale","geo_field":"name","lat":12.4166,"lng":-3.4195527},{"name":"Burkina Faso - Région du Plateau Central, Sud Ouest et Hauts Bassins.","category":null,"project_id":"213142","cris_id":null,"project_title":"Projet d’amélioration durable de la production et de promotion de l’accès aux céréales de base au Burkina Faso","geo_field":"name","lat":11.4942003,"lng":-4.2333355},{"name":"Burkina Faso, Province de la Sissili, Communes rurale de Tô avec ses 30 villages, et les Communes rurales de Nebialianayou, de Bieha, de Bourra, de Silly et la Commune urbaine de Léo.","category":null,"project_id":"150170","cris_id":null,"project_title":"Projet de Developpement Agricole et de Gestion des Ressources Naturelles et Groupements Vulnérables dans la province de la Sissili","geo_field":"name","lat":11.2441219,"lng":-2.2236667},{"name":"Burundi","category":null,"project_id":"109726","cris_id":null,"project_title":"Programme de soutien à l'économie alimentaire des ménages dans Kayanza et Ngozi","geo_field":"name","lat":-3.373056,"lng":29.918886},{"name":"Burundi","category":null,"project_id":"142671","cris_id":null,"project_title":"''Projet durable pour la réhabilitation de la sécurité alimentaire des communautés en province CANKUZO (commune Cankuzo, Gisagara et Mishiha)''","geo_field":"name","lat":-3.373056,"lng":29.918886},{"name":"Burundi","category":null,"project_id":"143002","cris_id":null,"project_title":"Projet de multiplication et de diffusion de matériel de plantation de colocase en province de Rutana","geo_field":"name","lat":-3.373056,"lng":29.918886},{"name":"Burundi","category":null,"project_id":"211323","cris_id":null,"project_title":"Lutte anti-érosive en Province de Rutana (Burundi)","geo_field":"name","lat":-3.373056,"lng":29.918886},{"name":"Burundi (Karuzi, Gitega, Ngozi, Kayanza, Buja rural et Bubanza)","category":null,"project_id":"251309","cris_id":null,"project_title":"Amélioration de la sécurité alimentaire des ménages vulnérables dans 6 provinces du Burundi (Karuzi, Gitega, Ngozi, Kayanza, Buja rural et Bubanza) à travers le renforcement des capacités et la professionnalisation des organisations de producteurs","geo_field":"name","lat":-3.100096,"lng":30.163019},{"name":"Burundi : Gitega, Ruyigi, Rumonge et Bururi","category":null,"project_id":"251354","cris_id":null,"project_title":"Projet pour la Promotion des Organisations Professionnelles Agricoles au Burundi (PROPABU)","geo_field":"name","lat":-3.429664,"lng":29.92979},{"name":"Burundi : Province de Rutana, communes de Musongati et Mpinga-Kovove","category":null,"project_id":"211333","cris_id":null,"project_title":"Production de plants fruitiers en Province de Rutana (Burundi)","geo_field":"name","lat":-3.930821,"lng":29.992649},{"name":"Burundi, Bujumbura","category":null,"project_id":"90583","cris_id":null,"project_title":"Sécurité alimentaire à Muramvya, Mwaro et Cankuzo","geo_field":"name","lat":-3.376217,"lng":29.359349},{"name":"Burundi, province de Gitega, commune de Gitega","category":null,"project_id":"90584","cris_id":null,"project_title":"appui au redemarrage agricole dans 6 communes des provinces frontalieres","geo_field":"name","lat":-3.429664,"lng":29.92979},{"name":"Burundi, Province de Karusi, Commune de Buhiga","category":null,"project_id":"90587","cris_id":null,"project_title":"Food security programme cankuzo and muyinga provinces - Burundi","geo_field":"name","lat":-3.0307079,"lng":30.1603737},{"name":"Burundi, Province de Ruyigi","category":null,"project_id":"109716","cris_id":null,"project_title":"Renforcement de la filière de production de semences de qualité pour l'amélioration de la production agricole à Karusi","geo_field":"name","lat":-3.446207,"lng":30.2512728},{"name":"Burundi, Province de Ruyigi","category":null,"project_id":"247202","cris_id":null,"project_title":"AMELIORATION DES CONDITIONS DE VIE ET DE PRODUCTION DE LA POPULATION DE LA COMMUNE BUTEZI PAR L’ACCES A L’EAU POTABLE, L’HYGIENE ET L’ASSAINISSEMENT","geo_field":"name","lat":-3.446207,"lng":30.2512728},{"name":"Burundi, tout le pays","category":null,"project_id":"91448","cris_id":null,"project_title":"programme de soutien à l'économie alimentairedes ménages dans les provinces de Kayanza et Ngozi - Burundi","geo_field":"name","lat":-2.912195,"lng":29.825001},{"name":"Bururi","category":null,"project_id":"242962","cris_id":null,"project_title":"Contribution à la stabilisation de la sécurité alimentaire des ménages ruraux par l’amélioration de leur capacité de gestion conservatoire des eaux et des sols, Province de Bururi, Burundi","geo_field":"name","lat":-3.95,"lng":29.6166667},{"name":"Cameroun - Région du Nord","category":null,"project_id":"118626","cris_id":null,"project_title":"Renforcement de l’autonomie et de l’auto-promotion des organisations paysannes pour le développement socioéconomique des communes de Garoua Rurale et de Gashiga - Cameroun","geo_field":"name","lat":8.580901299999999,"lng":13.914399},{"name":"CANTON DU SALAMAT","category":null,"project_id":"196201","cris_id":null,"project_title":"PROJET DE DEVELOPPEMENT COMMUNAUTAIRE DU CANTON DE SALAMAT","geo_field":"name","lat":23.129163,"lng":113.264435},{"name":"Caribbean Countries","category":null,"project_id":"290490","cris_id":null,"project_title":"Optimisation of Cocoa pollination for increased Cocoa Yields and Income Generation","geo_field":"name","lat":20.1540195,"lng":-76.085601},{"name":"Cayo disctrict","category":null,"project_id":"279264","cris_id":null,"project_title":"Belize Rural Development Project II: Improving the Quality of Life of Rural Households by developing capacity to find or create employment in gardening and other plant related areas","geo_field":"name","lat":17.0984445,"lng":-88.94138650000001},{"name":"Chiredzi, Mwenezi, Kariba/ Hurungwe, Masvingo and Harare","category":null,"project_id":"137925","cris_id":null,"project_title":"Leads food security program for vulnerable households and OVCs in rural and peri-urban areas","geo_field":"name","lat":-17.82922,"lng":31.053961},{"name":"Chivi, Mavsingo and Zaka Districts, Masvingo Province","category":null,"project_id":"209813","cris_id":null,"project_title":"Empowering Communities for Self-Reliant Income Generation in Masvingo Province, Zimbabwe","geo_field":"name","lat":-20.6241509,"lng":31.2626366},{"name":"Commune de Marigot, Département du Sud-est, Haiti","category":null,"project_id":"299445","cris_id":null,"project_title":"Relance agricole et amélioration de la nutrition pour la sécurité alimentaire des familles paysannes dans la Commune de Marigot, Département du Sud-est, Haiti","geo_field":"name","lat":18.2333333,"lng":-72.3166667},{"name":"Communes :Tikaré et Rouko, Régions du Centre-Nord, Burkina Faso","category":null,"project_id":"114106","cris_id":null,"project_title":"Appui au développement des départements de Tikaré et Rouko, Burkina Faso","geo_field":"name","lat":13.1724464,"lng":-0.9056623},{"name":"Communes rurales de Dandoli, Muetoumo, Ondogou, Pelou, Kendé, Soroly, Wadouba et Ségué-ire, Cercle de Bandiagara, Région de Mopti, Mali.","category":null,"project_id":"214844","cris_id":null,"project_title":"Projet de renforcement de la sécurité alimentaire et nutritionnelle dans le Cercle de Bandiagara","geo_field":"name","lat":14.5370435,"lng":-3.6623239},{"name":"Conakry et Kindia","category":null,"project_id":"209007","cris_id":null,"project_title":"ACF/appui aux populations à faible revenu en régions urbaines","geo_field":"name","lat":9.537029,"lng":-13.67847},{"name":"Conakry, Guinée maritime et Guinée forestière","category":null,"project_id":"224039","cris_id":null,"project_title":"Support sustainable development of fishing industry","geo_field":"name","lat":9.537029,"lng":-13.67847},{"name":"Cote d’Ivoire","category":null,"project_id":"145327","cris_id":null,"project_title":"APPUI A LA CERTIFICATION DES PLANTATIONS EN COTE D'IVOIRE","geo_field":"name","lat":5.0,"lng":-5.0},{"name":"COUNTRY: South Sudan REGION: Northern Bahr El Ghazal State COUNTIES: Aweil East, Aweil North","category":null,"project_id":"158207","cris_id":null,"project_title":"Improving livelihood for the residents and returnees in Northern Bahr el Ghazal State through interventions in the sectors of Agriculture, Water and Micro-Finance","geo_field":"name","lat":8.536044900000002,"lng":26.7967849},{"name":"Country: Tanzania Region: Tabora - Urambo and Sikonge districts Target group: small-scale farmers","category":null,"project_id":"149060","cris_id":null,"project_title":"Beekeeper Economic Empowerment (BEE) Project, Tabora, Tanzania","geo_field":"name","lat":-5.077679499999999,"lng":32.0695406},{"name":"Countrywide","category":null,"project_id":"197667","cris_id":null,"project_title":"Somalia Recovery Programme II: CONTRACT 9 ACP SO 7/3 WITH TERRA NUOVA","geo_field":"name","lat":34.6651184,"lng":-118.1279996},{"name":"Countrywide","category":null,"project_id":"254404","cris_id":null,"project_title":"Cash Response Capacity Building (CRCB)","geo_field":"name","lat":34.6651184,"lng":-118.1279996},{"name":"Darfur, Sudan","category":null,"project_id":"271777","cris_id":null,"project_title":"Community-based market monitoring in the Darfur region of Sudan","geo_field":"name","lat":14.3782747,"lng":24.9042208},{"name":"Département du Centre Commune de Saut d'Eau","category":null,"project_id":"143210","cris_id":null,"project_title":"Projet d'appui à l'augmentation des revenus dans la commune de saut d'eau","geo_field":"name","lat":44.8629867,"lng":-91.4794878},{"name":"Département du Nord-ouest Commune de Baie de Henne Commune de Jean Rabel Commune de Cabaret","category":null,"project_id":"143156","cris_id":null,"project_title":"Projet de renforcement et d'accompagnement de trois associations d'irrigants dans le Bas Nord-ouest","geo_field":"name","lat":50.3851246,"lng":3.2642436},{"name":"Département du Sud, Haiti","category":null,"project_id":"299444","cris_id":null,"project_title":"Appui aux agriculteurs de la section communale de Frangipane à Aquin, Département du Sud, Haiti","geo_field":"name","lat":18.2783598,"lng":-72.35479149999999},{"name":"Département Grande Sido / Région Moyen Chari / Tchad","category":null,"project_id":"241933","cris_id":null,"project_title":"Programme LRRD pour le sud du Tchad: Appui à l’amélioration de la sécurité alimentaire et à l’accès à l’eau potable dans la Grande Sido","geo_field":"name","lat":8.469114,"lng":18.5225709},{"name":"Département Nord-Ouest, Haiti","category":null,"project_id":"299442","cris_id":null,"project_title":"Renforcement de la production agricole et de l’élevage, Môle-Saint-Nicolas, Département Nord-Ouest, Haiti","geo_field":"name","lat":19.8374009,"lng":-73.0405277},{"name":"District de Kamonyi, Province du Sud dans la nouvelle organisation territoriale du Rwanda (depuis 2006) District de Ryumba à proximité de la ville de Gitarama dans l'ancienne organisation territoriale du Rwanda (avant 2006)","category":null,"project_id":"20657","cris_id":null,"project_title":"RECONCILIATION AND PEACE BUILDING THROUGH FOOD AND INCOME SECURITY, GITARAMA, RWANDA","geo_field":"name","lat":-2.076093,"lng":29.7575},{"name":"District of Koinadugu. Chiefdoms of Wara Wara Yagala, Sengbe, Folosaba Dembelia, Dembelia Sinkunia, Kasonko.","category":null,"project_id":"168849","cris_id":null,"project_title":"Sustainable Agriculture Development in Koinadugu District (SADev)","geo_field":"name","lat":9.5308619,"lng":-11.5248055},{"name":"Distritos de Nhamatande e Buzi (Sofala) e Marracuene (Maputo), Moçambique","category":null,"project_id":"213700","cris_id":null,"project_title":"Reforço da segurança nos Distritos de Nhamatande e Buzi (Sofala) e Marracuene (Maputo), Moçambique","geo_field":"name","lat":-25.739376,"lng":32.6743638},{"name":"Douala - CAMEROUN","category":null,"project_id":"142341","cris_id":null,"project_title":"Contrat de subvention ''appui à l'ASSOBACAM''","geo_field":"name","lat":4.047486000000001,"lng":9.706374},{"name":"Douala CAMEROUN","category":null,"project_id":"146236","cris_id":null,"project_title":"Contrat de subvention : ''Appui 2008-2009 à l'ASSOBACAM''","geo_field":"name","lat":4.047486000000001,"lng":9.706374},{"name":"Ed Daein, South Darfur,Sudan","category":null,"project_id":"253191","cris_id":null,"project_title":"Strengthening Food Security in South Darfur","geo_field":"name","lat":10.4791039,"lng":26.7967849},{"name":"Eritrea","category":null,"project_id":"212819","cris_id":null,"project_title":"Improved Cereal Seeds, Farm Tools and Inputs Distribution for High Potential Production Areas of the Southern Region in Eritrea","geo_field":"name","lat":15.179384,"lng":39.782334},{"name":"Eritrea","category":null,"project_id":"213429","cris_id":null,"project_title":"Intensive Irrigated Vegetable and Forage Production for Extreme Food Insecure Riverine Community in Haikota in Western Eritrea","geo_field":"name","lat":15.179384,"lng":39.782334},{"name":"Eritrea","category":null,"project_id":"213673","cris_id":null,"project_title":"Improved Food Production and food purchasing capacity of the most vulnerable communities in Eritrea","geo_field":"name","lat":15.179384,"lng":39.782334},{"name":"Eritrea (Zobas Debub, Anseba and Gash Barka)","category":null,"project_id":"248649","cris_id":null,"project_title":"Farmer-preferred technology for improved food security in Eritrea","geo_field":"name","lat":15.4068825,"lng":37.6386622},{"name":"Ethiopia PSNP and other vulnerable households in 9 target woredas in Oromia and 4 in the Southern Nations, Nationalities, and Peoples Regions (SNNPR)","category":null,"project_id":"214170","cris_id":null,"project_title":"Food Security through increased Income, Assets and Protection from grain price rises (FS-IAP)","geo_field":"name","lat":6.5156911,"lng":36.954107},{"name":"Ethiopia, Amhara region, Waghamra zone, Sekota, Dahana and Zequala woreda","category":null,"project_id":"84617","cris_id":null,"project_title":"Integrated Multi-sectoral Project to Improve the Food Security Situation en Sekota, Dehana, and Ziquala Woreda – Waghamra Zone- Amhara Regional State, Ethiopia","geo_field":"name","lat":11.3494247,"lng":37.9784585},{"name":"Ethiopia, SNNPR","category":null,"project_id":"282576","cris_id":null,"project_title":"EC Project to improve the livelihoods for most vulnerable households in Southern Ethiopia","geo_field":"name","lat":6.5156911,"lng":36.954107},{"name":"Ethiopia,Fifteen Districts in Oromia and Amhara National Regional States of Ethiopia Oromia Districts: 1. Dodola, 2. Kofele, 3. Qore, 4. Arsi Ngelle, 5. Adami Tullu and, 6. Zway Dugda Amhara Districts: 1.Bure, 2.Wamberima, 3. Jabitana, 4. Wogera, 5. Debarek, 6.Farta, 7. Dabat, 8. Este, 9. Laygaint","category":null,"project_id":"214051","cris_id":null,"project_title":"Supporting production and market based solutions to soaring food prices in Ethiopia","geo_field":"name","lat":9.145000000000001,"lng":40.489673},{"name":"Four IDP camps of Khartoum State and in the squatter area of Kalaka, Gubba (Khartoum).","category":null,"project_id":"145931","cris_id":null,"project_title":"Youth Empowement in Sudan(YES)","geo_field":"name","lat":15.550101,"lng":32.532241},{"name":"Ghana - Upper West and Northern regions","category":null,"project_id":"213214","cris_id":null,"project_title":"Northern Ghana Food Security Resilient Project (NGFSRP)","geo_field":"name","lat":9.543926899999999,"lng":-0.9056623},{"name":"Ghana - Wa East district, Upper West Region","category":null,"project_id":"213386","cris_id":null,"project_title":"Sustainable livelihoods programme for vulnerable households in the Upper West Region","geo_field":"name","lat":10.0666667,"lng":-2.5},{"name":"Gitega (Burundi)","category":null,"project_id":"169912","cris_id":null,"project_title":"Valorisation Intégrée des Marais en Appui à la Sécurité Alimentaire dans la Province de Gitega, Burundi (VIMASA)","geo_field":"name","lat":-3.429664,"lng":29.92979},{"name":"Gitega (Burundi)","category":null,"project_id":"172000","cris_id":null,"project_title":"Projet de réhabilitation de la sécurité alimentaire en province Gitega, commune Buraza et Bukirasazi, Burundi","geo_field":"name","lat":-3.429664,"lng":29.92979},{"name":"Grand Gedeh and River Gee counties in South East Liberia","category":null,"project_id":"278040","cris_id":null,"project_title":"Promoting food security in Southeast Liberia (SEL) through rice value chain development and crops diversification","geo_field":"name","lat":5.2604894,"lng":-7.872159999999999},{"name":"Greater Dar El Salaam, Omdurman, Sudan","category":null,"project_id":"145380","cris_id":null,"project_title":"Development of Human and Social Capital Amongst IDPs in Khartoum State.","geo_field":"name","lat":15.64414,"lng":32.477612},{"name":"Grenada","category":null,"project_id":"147789","cris_id":null,"project_title":"GRENADA 1999 - ACHIEVING COMMERCIAL VIABILITY OF THE BANANA INDUSTRY - Grant Contract 2 - Banana Industry","geo_field":"name","lat":12.1165,"lng":-61.67899999999999},{"name":"guiné bissau","category":null,"project_id":"258574","cris_id":null,"project_title":"Desenvolvimento e implementação de um programa de apoio à comercialização dos produtos locais da Guiné-bissau com base em Formas e Acções associativas e cooperadas","geo_field":"name","lat":11.803749,"lng":-15.180413},{"name":"Guinea Conakry","category":null,"project_id":"225442","cris_id":null,"project_title":"Facilité alimentaire en Basse & Haute Guinée","geo_field":"name","lat":9.537029,"lng":-13.67847},{"name":"Guiné-Bissau","category":null,"project_id":"212992","cris_id":null,"project_title":"Programa Descentralizado de Segurança Alimentar e Nutricional nas Regiões da Guiné-Bissau (PDSA/GB)","geo_field":"name","lat":11.803749,"lng":-15.180413},{"name":"Guiné-Bissau","category":null,"project_id":"275543","cris_id":null,"project_title":"Nubanale di Batcharabu: vamos acabar com a fome","geo_field":"name","lat":11.803749,"lng":-15.180413},{"name":"Guinée","category":null,"project_id":"258816","cris_id":null,"project_title":"Projet de développement des filières riz et maraîchères en Haute Guinée","geo_field":"name","lat":9.945587,"lng":-9.696645},{"name":"Guinée","category":null,"project_id":"224573","cris_id":null,"project_title":"Renforcement de la sécurité alimentaire dans les zones enclavées du Nord de la Guinée","geo_field":"name","lat":9.945587,"lng":-9.696645},{"name":"Guinée","category":null,"project_id":"225753","cris_id":null,"project_title":"Amélioration de la sécurité alimentaire en Haute Guinée et Guinée forestière : production, transformation et commercialisation du riz et de l’huile de palme","geo_field":"name","lat":9.945587,"lng":-9.696645},{"name":"Guinée (Conakry)","category":null,"project_id":"213151","cris_id":null,"project_title":"Projet de développement des filières riz, oignon et aubergine en Haute Guinée pour lutter contre la flambée des prix","geo_field":"name","lat":9.537029,"lng":-13.67847},{"name":"HAITI","category":null,"project_id":"222471","cris_id":null,"project_title":"Réduction de la vulnérabilité en milieu rural pour la création d'emplois temporaires à travers des travaux de mise en place de structures de protection de bassins versants","geo_field":"name","lat":18.971187,"lng":-72.285215},{"name":"Haiti","category":null,"project_id":"228393","cris_id":null,"project_title":"Appui aux filières mangues et avocats à Saut d’Eau","geo_field":"name","lat":18.971187,"lng":-72.285215},{"name":"Hamesh Koraib, Telkuk and Rural Kassala localities, Kassala State, Eastern Region -Sudan","category":null,"project_id":"267566","cris_id":null,"project_title":"Food Security and Natural Resources Management in Kassala State","geo_field":"name","lat":15.45,"lng":36.4},{"name":"Hantam Karoo District, Northern Cape Province, Republic of South Africa","category":null,"project_id":"135337","cris_id":null,"project_title":"Support to the land and agrarian reform and to the development of small agrarian economic activities in Hantam Karoo – Northern Cape Province","geo_field":"name","lat":-30.6514499,"lng":21.98113},{"name":"Homa Bay and Rachuonyo Districts in Nyanza Province","category":null,"project_id":"170317","cris_id":null,"project_title":"Strengthening Product Value Chain of Agro Business Enterprises in South Nyanza","geo_field":"name","lat":-0.5058526999999999,"lng":34.7335929},{"name":"Horn of Africa","category":null,"project_id":"114046","cris_id":null,"project_title":"Technical support to Horn of Africa Food Security information System & Assessments","geo_field":"name","lat":9.1303782,"lng":41.2808577},{"name":"HT","category":null,"project_id":"228386","cris_id":null,"project_title":"Augmentation de la production agricole par le renforcement de la filière laitière á travers l’appui aux initiatives économiques locales et la gestion des ressources naturelles","geo_field":"name","lat":18.971187,"lng":-72.285215},{"name":"HT, Department du Centre","category":null,"project_id":"194037","cris_id":null,"project_title":"VSF-CIDDA/RENFORCEMENT DES COOPERATIVES CAFEITIERES AMELIORATION REVENUS PRODUCTEURS BAPTISTE ET SAVANETTE","geo_field":"name","lat":18.9582742,"lng":-72.0468164},{"name":"Huila, Bié, Huambo, Benguela.","category":null,"project_id":"145990","cris_id":null,"project_title":"Desenvolvimento de serviços financeiras rurais no planalto central da Republica de Angola","geo_field":"name","lat":-12.58,"lng":13.4077778},{"name":"IDP camps in Greater Khartoum, Khartoum State","category":null,"project_id":"139473","cris_id":null,"project_title":"Enhancing Food Security of Vulnerable groups in IDP camps of Greater Khartoum","geo_field":"name","lat":15.550101,"lng":32.532241},{"name":"Iganga/Mayuge & Kabale District","category":null,"project_id":"95805","cris_id":null,"project_title":"STRENGTHENING FARMERS’ ASSOCIATIONS FOR POVERTY ERADICATION - UGANDA","geo_field":"name","lat":0.615,"lng":33.485},{"name":"IN UGANDA, AMURIA DISTRICT","category":null,"project_id":"194330","cris_id":null,"project_title":"NORTHERN UGANDA REHABILITATION PROGRAMME: SOCADIDO - SUPPORT TO LIVELIHOODS, INCOME GENERATION & HOUSEHOLD FOOD SECURITY FOR RESETTLING & RETURNING IDPS IN AMURIA","geo_field":"name","lat":2.03017,"lng":33.6427533},{"name":"IN UGANDA, KARAMOJA REGION IN MOROTO AND NAKAPIRIPIRIT DISTRICTS","category":null,"project_id":"194338","cris_id":null,"project_title":"NORTHERN UGANDA REHABILITATION PROGRAMME: ADRA DENMARK - KARAMOJA LIVELIHOOD ENHANCEMENT PROJECT","geo_field":"name","lat":1.373333,"lng":32.290275},{"name":"Irrigated sugarcane scheme, Kasinthula, Chikwawa District, Southern Region, Malawi","category":null,"project_id":"172237","cris_id":null,"project_title":"Kasinthula Phase III Expansion (SVCGT)","geo_field":"name","lat":-16.1958446,"lng":34.7740793},{"name":"Isiolo, Koibatek, Laikipia, Meru Central, Meru North, Narok, Nyandarua and Transmara","category":null,"project_id":"133954","cris_id":null,"project_title":"Integrated Rainwater Harvesting & Management Systems and Complementary Technologies for Poverty Reduction and Sustainable Livelihoods in Semi-arid Districts of Kenya","geo_field":"name","lat":0.355636,"lng":37.5833061},{"name":"Isiolo, Samburu, Marsabit, Baringo, Wajir, Tana River counties.","category":null,"project_id":"305221","cris_id":null,"project_title":"ASAL- Agricultural Productivity Research Project (ASAL-APRP): Enhanced Community Resilience to Drought through Innovative Market Based Systems","geo_field":"name","lat":0.355636,"lng":37.5833061},{"name":"Kaabong and Kotido Districts, Karamoja Sub-Region, Northern Uganda","category":null,"project_id":"284493","cris_id":null,"project_title":"Lasting Infrastructure for Northern Karamoja promoting Agro-pastoral Growth and Enterprise (LINKAGE)","geo_field":"name","lat":3.5124436,"lng":34.1337219},{"name":"Kajiado, Narok and West Pokot counties","category":null,"project_id":"305253","cris_id":null,"project_title":"ASAL- Agricultural Productivity Research Project (ASAL-APRP): Promote and Strengthen Enterprises and Market Systems in Drought-Prone ASAL Areas","geo_field":"name","lat":1.6210076,"lng":35.3905046},{"name":"KAMPALA (UGANDA), NAIROBI, NJORO (KENYA)","category":null,"project_id":"193987","cris_id":null,"project_title":"KAMPALA UNIV-STRENGTHENING OF UNIVERSITY CAPACITY FOR PROMOTING FACILITATING & TEACHING RURAL INNOVATION PROCESS-SUCRAPI","geo_field":"name","lat":-0.331626,"lng":35.944938},{"name":"Kamuli District, Uganda","category":null,"project_id":"96123","cris_id":null,"project_title":"Establishing an export market for certified responsible coffee with smallholder producer groups in Uganda","geo_field":"name","lat":0.9187107,"lng":33.1239049},{"name":"Karusi (Burundi)","category":null,"project_id":"171998","cris_id":null,"project_title":"Appui à la sécurité alimentaire dans la Province de Karusi","geo_field":"name","lat":-3.100096,"lng":30.163019},{"name":"Kassala Rural, Telkook and Hamesh Koreib Localities, Kassala State, Sudan","category":null,"project_id":"276951","cris_id":null,"project_title":"Providing Sustainable Livelihoods and Improving Food Security in Kassala State","geo_field":"name","lat":15.45,"lng":36.4},{"name":"Kayanza (Burundi)","category":null,"project_id":"169943","cris_id":null,"project_title":"Programme d'assistance pluriannuelle aux ménages vulnérables pour une sécurité alimentaire durable (PAPSAD), Kayanza, Burundi.","geo_field":"name","lat":-2.9218531,"lng":29.6252858},{"name":"Kayanza et Muramvya (Burundi)","category":null,"project_id":"169929","cris_id":null,"project_title":"Appui à l'autonomisation et la Rentabilisation des Exploitations Familiales dans 5 communes des provinces de Kayanza et Muramvya (AREF), Burundi","geo_field":"name","lat":-3.2675245,"lng":29.62238779999999},{"name":"Kenya","category":null,"project_id":"230224","cris_id":null,"project_title":"Adaptation and Dissemination of the ‘Push-Pull’ Technology (ADOPT): (Kenya component)","geo_field":"name","lat":-0.023559,"lng":37.906193},{"name":"Kenya","category":null,"project_id":"258962","cris_id":null,"project_title":"Construction, rehabilitation, provision of arcaricides for cattle dips, training and Capacity Building within Ol Kalou","geo_field":"name","lat":-0.023559,"lng":37.906193},{"name":"Kenya","category":null,"project_id":"214161","cris_id":null,"project_title":"Promoting Turkana pastoralist livelihoods to mitigate rising food prices","geo_field":"name","lat":-0.023559,"lng":37.906193},{"name":"Kenya","category":null,"project_id":"225025","cris_id":null,"project_title":"Using Food Aid to Stimulate Markets in Pastoral Communities","geo_field":"name","lat":-0.023559,"lng":37.906193},{"name":"Kenya","category":null,"project_id":"304927","cris_id":null,"project_title":"ASAL- Agricultural Productivity Research Project (ASAL-APRP): The Sorghum Value Chain Development Project in Kenya","geo_field":"name","lat":-0.023559,"lng":37.906193},{"name":"Kenya, Ethiopia, Tanzania","category":null,"project_id":"301124","cris_id":null,"project_title":"Participation for change: Strengthening local participation in policy processes to improve food security in dryland areas of East Africa","geo_field":"name","lat":1.957709,"lng":37.2972044},{"name":"Kenya, Nairobi and Kisumu","category":null,"project_id":"213808","cris_id":null,"project_title":"Improving the food security situation of vulnerable urban population affected by the food crisis in Kenya","geo_field":"name","lat":-0.125065,"lng":34.7930664},{"name":"Khartoum: Jabal Awlia, Mayo, Souba and Haj Yousif Um Dorman: Al Salam, Al Bashir, Fatih and Al Thawrat","category":null,"project_id":"144548","cris_id":null,"project_title":"CRS Khartoum State Poverty Reduction Programme","geo_field":"name","lat":15.550101,"lng":32.532241},{"name":"Kilifi County: Divisions of Ganze, Vitengeni, ans bamba","category":null,"project_id":"306500","cris_id":null,"project_title":"ASAL- Agricultural Productivity Research Project (ASAL-APRP): Re-introduction and Commercialization of Cassava for Improved Livelihoods through Whole Value Chain Model","geo_field":"name","lat":-3.6333333,"lng":39.85},{"name":"Kitgum, Lamwo, Pader Districts Northern Uganda","category":null,"project_id":"284490","cris_id":null,"project_title":"Northern Uganda Agricultural Recovery Programme (ALREP):BUILDING INFRASTRACTURES AND LIVELIHOODS FOR DEVELOPMENT (BUILD)","geo_field":"name","lat":3.490969,"lng":32.8084496},{"name":"Kitui District in Eastern Province","category":null,"project_id":"119617","cris_id":null,"project_title":"Mutonguni Poverty Reduction Project, Kenya","geo_field":"name","lat":-1.3252377,"lng":38.0035696},{"name":"La Préfecture de l'Ouham Pendé et les Sous-prefectures de Batangafo et Bouca, République Centrafricaine","category":null,"project_id":"258720","cris_id":null,"project_title":"Projet de relance durable des systèmes de production et de développement communautaire dans la zone de Batangafo et de structuration des organisations paysannes agricoles et de circuits de commercialisation dans l'Ouham Pendé","geo_field":"name","lat":6.506217,"lng":18.279449},{"name":"L'action s'adresse à 25 organisations paysannes d'éleveurs membres de l'AOPP évoluant dans 5 cercles de la région de Mopti pour un total d'environ 1 400 éleveurs dont 600 femmes. La zone d'intervention du projet est au Mali, dans la région de Mopti, cercles de Djenné, Douentza, Bandiagara, Bankass et Koro)","category":null,"project_id":"145569","cris_id":null,"project_title":"Promotion du secteur élévage dans la région de Mopti-Mali","geo_field":"name","lat":14.48319,"lng":-4.183031},{"name":"L'action s'adresse à 30 groupements de femmes maraîchères, 35 groupements de rizicultrices, 65 groupements de femmes semencières, 6 groupes de recherche action et 12 000 enfants entre 0 et 59 mois. La zone d'intervention est le Mali, région de Sikasso, communes rurales de Kolondiéba, Ngolodiana, Mena, Kébila, Bougoula et Farako","category":null,"project_id":"147605","cris_id":null,"project_title":"Projet de réduction de la malnutrition dans le cercle de Kolondiéba, Région de Sikasso -Mali","geo_field":"name","lat":10.8147417,"lng":-6.835099899999999},{"name":"Lesotho","category":null,"project_id":"212836","cris_id":null,"project_title":"Improved Agricultural Production for Vulnerable Households in Lesotho","geo_field":"name","lat":-29.609988,"lng":28.233608},{"name":"Lesotho","category":null,"project_id":"213173","cris_id":null,"project_title":"Improved Food Production through Gravity Irrigation","geo_field":"name","lat":-29.609988,"lng":28.233608},{"name":"Lesotho","category":null,"project_id":"213927","cris_id":null,"project_title":"Food Facility Support to households affected by HIV/AIDS","geo_field":"name","lat":-29.609988,"lng":28.233608},{"name":"Lesotho (Maseru, Mafeteng, Mohale’s Hoek & Quthing)","category":null,"project_id":"307804","cris_id":null,"project_title":"Capacity Building and Strengthening of Vulnerable Groups in Lesotho through working with local authorities and Agricultural Resource Centers","geo_field":"name","lat":-29.308319,"lng":27.4916},{"name":"Liben Ethiopia","category":null,"project_id":"284418","cris_id":null,"project_title":"Ethiopia: coopi; food security project in Liben, Afdhere and Borena zone in Oromia Regional state","geo_field":"name","lat":11.683333,"lng":36.95},{"name":"Liberia","category":null,"project_id":"309874","cris_id":null,"project_title":"Increasing food security in poor, rural areas in Liberia through livestock production, processing and marketing.","geo_field":"name","lat":6.428055,"lng":-9.429499000000002},{"name":"Liberia","category":null,"project_id":"310515","cris_id":null,"project_title":"Cassava Value Chain for Pro-poor Development in Liberia","geo_field":"name","lat":6.428055,"lng":-9.429499000000002},{"name":"Liberia, 6 eastern townships of Greater Monrovia (Montserrado County): Old Road, Congo Town, Paynesville, Gardnersville, Barnersville, Johnsonville and the City of Gbarnga (Bong County)","category":null,"project_id":"222812","cris_id":null,"project_title":"Urban / Peri-Urban Agriculture Project in Liberia","geo_field":"name","lat":6.995572,"lng":-9.472111},{"name":"Liberia, Gbarpolu county","category":null,"project_id":"172561","cris_id":null,"project_title":"Gbarpolu Agriculture, Infrastructure ans Nutrition for Food Security (GAINS)","geo_field":"name","lat":7.495263700000001,"lng":-10.0807298},{"name":"Liberia, Western Greater Monrovia, Tubmanburg and the corridor between Monrovia and Tubmanburg","category":null,"project_id":"217841","cris_id":null,"project_title":"Enhancing Urban and Peri-Urban Agriculture in Liberia","geo_field":"name","lat":6.8666667,"lng":-10.8166667},{"name":"L'intervention a comme groupes cibles 900 femmes des groupements exploitant des périmètres maraîchers et 18 groupements féminins. Le projet intervient au Mali, dans la région de Kayes, cercle de Yélimané, communes de Diongaga, Tringa-Maréna, Kirané, Krémis, Gory, Toya (Yaguiné), Guidimé, Soumpou, Tambacara","category":null,"project_id":"146946","cris_id":null,"project_title":"Programme d'appui à la réalisation de périmètres maraîchers et au renforcement des groupements féminins dans le cercle de Yélimané-Mali","geo_field":"name","lat":15.118,"lng":-10.572},{"name":"Machakos District in Eastern Province","category":null,"project_id":"94836","cris_id":null,"project_title":"Community development project in Machakos district KENYA","geo_field":"name","lat":-1.4687744,"lng":37.7326547},{"name":"Madagascar","category":null,"project_id":"144435","cris_id":null,"project_title":"ANJAGNA","geo_field":"name","lat":-18.766947,"lng":46.869107},{"name":"Madagascar","category":null,"project_id":"167749","cris_id":null,"project_title":"Mise en place des Fonds Régionaux de développement Agricole pilotes dans les régions Amoro'i Mania et Ménabé","geo_field":"name","lat":-18.766947,"lng":46.869107},{"name":"Madagascar","category":null,"project_id":"208975","cris_id":null,"project_title":"Mise en place des Fonds Régionaux de développement Agricole pilotes dans les régions d'Anosy et Atsimo Andrefana","geo_field":"name","lat":-18.766947,"lng":46.869107},{"name":"MADAGASCAR","category":null,"project_id":"295687","cris_id":null,"project_title":"Mobilisation des familles rurales et renforcement des capacités des jeunes producteurs et des femmes agricultrices pour une meilleure réponse aux problématiques de sécurité alimentaire et de nutrition","geo_field":"name","lat":-18.766947,"lng":46.869107},{"name":"MADAGASCAR - Région VATOVAVY FITOVINANY","category":null,"project_id":"109454","cris_id":null,"project_title":"Développement dynamique des filières par l'intensification agricole et l'appui aux organisations paysannes dans les districts côtiers de la région de Vatovavy et Fitovinany","geo_field":"name","lat":-21.3030421,"lng":47.6377134},{"name":"MADAGASCAR - VANGAINDRANO","category":null,"project_id":"130965","cris_id":null,"project_title":"Projet d'Appui à la production rizicole et légumineuse dans le District de Vangaindrano (PAPDIV)","geo_field":"name","lat":-23.35,"lng":47.59999999999999},{"name":"Madagascar . Région ATsinanana et ANALANJIROFO","category":null,"project_id":"143527","cris_id":null,"project_title":"Diversification horticole dans la région de Tamatave","geo_field":"name","lat":-18.1499,"lng":49.402309},{"name":"Madagascar ; régions Vatovavy-Fitovinany et Atsimo-Atsinanana Districts de Manakara, Vohipeno et Farafangana","category":null,"project_id":"295641","cris_id":null,"project_title":"Renforcement durable des capacités productives et organisationnelles des familles paysannes du Sud-Est en capitalisant l'expérience Fagnimbogna","geo_field":"name","lat":-22.82295,"lng":47.826401},{"name":"MADAGASCAR- Région Atsinanana- Région Analanjirofo","category":null,"project_id":"223050","cris_id":null,"project_title":"Diversification horticole dans la région de Tamatave","geo_field":"name","lat":-18.1499,"lng":49.402309},{"name":"Madagascar- Région Vatovavy Fitovinany","category":null,"project_id":"109512","cris_id":null,"project_title":"Projet d'appui à la lutte contre la malnutrition dans les régions de Vatovavy","geo_field":"name","lat":-21.3030421,"lng":47.6377134},{"name":"Madagascar, Région Atsimo Andrefana, District de Betioky","category":null,"project_id":"295729","cris_id":null,"project_title":"Prévention de la malnutrition dans 5 communes du district de Betioky Atsimo, Région Atsimo Andrefana","geo_field":"name","lat":-24.613791,"lng":44.766651},{"name":"Madagascar. Antananarivo.","category":null,"project_id":"144429","cris_id":null,"project_title":"Renforcement du projet d'appui nutritionnel aux cantines scolaires d'Akamasoa","geo_field":"name","lat":-18.914872,"lng":47.531612},{"name":"Madagascar. Est.","category":null,"project_id":"146010","cris_id":null,"project_title":"Appui aux centres de services agricoles à Madagascar. Zone 3.","geo_field":"name","lat":-19.8239795,"lng":46.9981246},{"name":"Madagascar. Sud Ouest.","category":null,"project_id":"144432","cris_id":null,"project_title":"Projet d'appui à la sécurisation alimentaire durable de la région de l'Androy à travers le développement de filières agricoles porteuses","geo_field":"name","lat":-14.6,"lng":47.55},{"name":"Madagascar. Sud Ouest.","category":null,"project_id":"144437","cris_id":null,"project_title":"Projet de sécurisation de l'approvisionnement en semences pour l'Androy (PSASA)","geo_field":"name","lat":-14.6,"lng":47.55},{"name":"Madagascar. Sud Ouest.","category":null,"project_id":"144439","cris_id":null,"project_title":"Projet Apemba Soa","geo_field":"name","lat":-14.6,"lng":47.55},{"name":"Madagascar. Sud.","category":null,"project_id":"144436","cris_id":null,"project_title":"TONDA","geo_field":"name","lat":-22.119722,"lng":48.021667},{"name":"Madagascar. Sud.","category":null,"project_id":"144440","cris_id":null,"project_title":"Projet VOTSOTSE","geo_field":"name","lat":-22.119722,"lng":48.021667},{"name":"Makamba et Mabanda (Burundi)","category":null,"project_id":"258520","cris_id":null,"project_title":"''Amélioration de la gestion rationnelle des ressources naturelles des communes de Makamba et Mabanda''","geo_field":"name","lat":-4.2701587,"lng":29.7802409},{"name":"Malawi, central and southern regions, Chikwawa, Blantyre and Dwangwa.","category":null,"project_id":"214752","cris_id":null,"project_title":"Capacity building for sugar outgrowers in agricultural methods and the building of sugar outgrowers’ management capabilities in Malawi","geo_field":"name","lat":-13.254308,"lng":34.301525},{"name":"Malawi, Central Region, Dedza District, Traditional Authority Kasumbu","category":null,"project_id":"118709","cris_id":null,"project_title":"Kasumbu Food Security Improvement Project - Malawi","geo_field":"name","lat":-14.1894585,"lng":34.2421597},{"name":"Malawi, Lilongwe - action will benefit nationwide","category":null,"project_id":"193893","cris_id":null,"project_title":"GRANT CONTRACT ACTION AGAINST HUNGER","geo_field":"name","lat":-13.9833333,"lng":33.7833333},{"name":"Malawi, Southern Region, Phalombe District, Traditional Authority Mkhumba","category":null,"project_id":"94803","cris_id":null,"project_title":"Mkhumba Boundary Communities’ Livelihoods Improvement Project - Malawi","geo_field":"name","lat":-15.7092038,"lng":35.6532848},{"name":"Mali - Région de Gao","category":null,"project_id":"213962","cris_id":null,"project_title":"Programme d’appui au développement de l’agriculture à Bourem (PADAB)","geo_field":"name","lat":16.9066332,"lng":1.5208624},{"name":"Mali - Région de Ségou, Mopti, Gao, Tombouctou et Bamako","category":null,"project_id":"213081","cris_id":null,"project_title":"Contribution à l’atténuation de l’impact de la flambée des prix des denrées alimentaires au Mali, par un soutien à la production agricole, au stockage, à la transformation et à la commercialisation des produits locaux","geo_field":"name","lat":12.65,"lng":-8.0},{"name":"Mali, Région de Gao, Cercle de Bourem, Commune de Téméra","category":null,"project_id":"209270","cris_id":null,"project_title":"Action pour la réduction de la malnutrition des populations vulnérables de la cummune de Téméra","geo_field":"name","lat":16.9562322,"lng":-0.3442449},{"name":"Maputo and Gaza Province","category":null,"project_id":"156448","cris_id":null,"project_title":"Expansao e Diversificaçao dos serviços de Microfinanças Rurais da CCOM","geo_field":"name","lat":-22.7142591,"lng":32.0482091},{"name":"Maputo Province","category":null,"project_id":"156460","cris_id":null,"project_title":"Breaking the Rural Poverty Trap: Expanding Microfinance Capacity for Productive Agricultural Investment in Maputo Province","geo_field":"name","lat":-25.2569876,"lng":32.5372741},{"name":"Massakory, Massaguet et Moussoro","category":null,"project_id":"270991","cris_id":null,"project_title":"Renforcement des organisations formelles d’éleveurs dans le sous espace Ouest (Massakory, Massaguet, Moussoro, N’Djamena Bilala, N’Djamena","geo_field":"name","lat":13.64,"lng":16.49},{"name":"MG","category":null,"project_id":"109462","cris_id":null,"project_title":"Diversification et développement de la production agricole dans la plaine d'Ankililaoka et le d'Antseva, dans la région de Toliara","geo_field":"name","lat":-17.930178,"lng":-43.7908453},{"name":"Moçambique – Província de Maputo Cidade no Distrito Municipal no 4, no vale do Bairro das Mahotas.","category":null,"project_id":"206331","cris_id":null,"project_title":"Projecto de Revitalização do Sector Produtivo das Zonas Verdes através do fortalecimento associativo, aumento da produtividade e de melhor acesso aos mercados.","geo_field":"name","lat":-25.2569876,"lng":32.5372741},{"name":"Moçambique –Província de Gaza- distritos de Manjacaze e Chibuto e Cidade de Xai-Xai.","category":null,"project_id":"206463","cris_id":null,"project_title":"Projecto de aproveitamento sustentável das áreas agrícolas no sul da Província de gaza","geo_field":"name","lat":-23.0221928,"lng":32.7181375},{"name":"Montserrado County (Greater Monrovia and Saint Paul River Districts) and Bomi County (Tubmanburg)","category":null,"project_id":"278883","cris_id":null,"project_title":"Enhancing food security and nutrition in and around Monrovia and Tubmanburg","geo_field":"name","lat":6.8666667,"lng":-10.8166667},{"name":"Mornei Locality, West Darfur, Sudan","category":null,"project_id":"290601","cris_id":null,"project_title":"Sustaining Food Security and Livelihoods in West Darfur","geo_field":"name","lat":12.8463561,"lng":23.0011989},{"name":"Mozambique Gaza Province Beneficiaries: 37,000 households with precarious livelihoods in Gaza province","category":null,"project_id":"213506","cris_id":null,"project_title":"Strengthening Livelihood Options for Vulnerable Rural Households in Gaza Province, Mozambique","geo_field":"name","lat":-23.0221928,"lng":32.7181375},{"name":"Mozambique, provinces of Nampula and Cabo Delgado","category":null,"project_id":"213015","cris_id":null,"project_title":"Low cost ‘Fridges’ for Rural Africa: Poverty reduction and food security using indigenous post-harvest technology","geo_field":"name","lat":-12.3335474,"lng":39.3206241},{"name":"Municipality of Ecunha, Province of Huambo, Angola","category":null,"project_id":"134207","cris_id":null,"project_title":"Relançamento Sustentável da Produção e Comercialização do Sector Pecuário Privado, Familiar e Empresarial, no Município da Ecunha","geo_field":"name","lat":-12.7666667,"lng":15.7333333},{"name":"Muramvya - Burundi","category":null,"project_id":"170503","cris_id":null,"project_title":"Projet d'intégration de l'environnement dans l'amélioration de la production agricole des exploitations familiales en commune de Muramvya","geo_field":"name","lat":-3.2675245,"lng":29.62238779999999},{"name":"Mvolo (Western Equatoria) and Yirol West (Lakes) Counties, Southern Sudan","category":null,"project_id":"160537","cris_id":null,"project_title":"Post Conflict Recovery Project","geo_field":"name","lat":6.0586912,"lng":29.9523716},{"name":"Mwaro (Burundi)","category":null,"project_id":"142613","cris_id":null,"project_title":"''Projet de multiplication des boutures de Manioc et d’aide alimentaire aux ménages vulnérables en commune Butezi (Province RUYIGI)''","geo_field":"name","lat":-3.511985,"lng":29.6991642},{"name":"Mwingi and Kitui Districts in Eastern Province","category":null,"project_id":"134093","cris_id":null,"project_title":"KENYA DAIRY GOATS AND CAPACITY BUILDING PROJECT","geo_field":"name","lat":-0.941455,"lng":38.0629983},{"name":"NAMIBIA","category":null,"project_id":"193708","cris_id":null,"project_title":"Emerging Commercial Farmers Support Programme ECFSP","geo_field":"name","lat":-22.95764,"lng":18.49041},{"name":"Nampula Province (Districts of Angoche, Moma and Mogincual)","category":null,"project_id":"162677","cris_id":null,"project_title":"Establishing a value chain for rice through a farmer-owned trade company","geo_field":"name","lat":-14.7604931,"lng":39.3206241},{"name":"Nampula province, Mogincual district","category":null,"project_id":"161995","cris_id":null,"project_title":"A model for improved performance in all links between farmers, processors and markets in small scale cashew farming/ production in Mozambique","geo_field":"name","lat":-15.6605401,"lng":40.1452734},{"name":"NIGER Régions: Zinder, Agadez, Tillabéry and Niamey","category":null,"project_id":"212957","cris_id":null,"project_title":"Actions d’atténuation de l’impact de la hausse des prix des aliments sur la sécurité alimentaire, sur la nutrition des enfants et sur les revenus des femmes","geo_field":"name","lat":13.512668,"lng":2.112516},{"name":"Nigeria: Plateau, Nassawara, Benue, and Kano States","category":null,"project_id":"135213","cris_id":null,"project_title":"STRENGTHENING THE LIVELIHOODS OF SMALL SCALE FARMERS IN NIGERIA","geo_field":"name","lat":9.081999,"lng":8.675277},{"name":"NKHOTAKOTA AND DOWA","category":null,"project_id":"193897","cris_id":null,"project_title":"GRANT CONTRACT CONCERN WORLDWIDE","geo_field":"name","lat":-12.92925,"lng":34.29636},{"name":"Nord de la Côte d'Ivoire","category":null,"project_id":"162489","cris_id":null,"project_title":"Structuration, renforcement et intégration économque d'un réseau associatif de 40 Ecoles familiales agricoles","geo_field":"name","lat":5.300939,"lng":-3.983775},{"name":"NORD EST","category":null,"project_id":"194043","cris_id":null,"project_title":"AAA/REHAB SYST D'IRRIGATION/PROMOT A MARIBAROUX, DEP N-O","geo_field":"name","lat":19.4889723,"lng":-71.8571331},{"name":"North Bombali District Sierra Leone","category":null,"project_id":"252198","cris_id":null,"project_title":"Sustainable improvement of food security in North Bombali District - Sierra Leone","geo_field":"name","lat":9.2475837,"lng":-12.1632718},{"name":"Northern Belize","category":null,"project_id":"170629","cris_id":null,"project_title":"Small Scale Enterprise Development in Agriculture and Tourism for the Orange Walk and Corozal Rural Communities","geo_field":"name","lat":17.5181874,"lng":-88.2309812},{"name":"Oromia and Somalia Regional States - Borena, Gujjii, Liben and Afder zones","category":null,"project_id":"124363","cris_id":null,"project_title":"Support to Reducing Vulnerability and Improving livelihood in Pastoral and Agropastoral Areas of Southern Oromia and Somali","geo_field":"name","lat":7.546037699999999,"lng":40.6346851},{"name":"Pays : Tchad Région : Hadjer Lamis ; Département : Haraze Al Biar Sous-préfecture : Mani ; Canton : Mani.","category":null,"project_id":"293404","cris_id":null,"project_title":"Programme d'appui au développement local et à la gestion des ressources naturelles: Mani Essor 2 : Sécurité alimentaire","geo_field":"name","lat":12.4541462,"lng":15.3131185},{"name":"PORT AU PRINCE (HAITI), SANTIAGO (REP DOMINICAINE), LANGUEDOC-ROUSSILLON, M ONTPELLIER (FRANCE)","category":null,"project_id":"193988","cris_id":null,"project_title":"MONTPELLIER SUPAGRO-RENFORCEMENT DU RESEAU 'PROFESSIONNALISATION DES FORMATIONS AGRICOLES' EN HAITI ET REP DOMINICAINE","geo_field":"name","lat":18.539269,"lng":-72.336408},{"name":"Province du Kadiogo, Région du Centre, Burkina Faso","category":null,"project_id":"94617","cris_id":null,"project_title":"Projet Participatif de Réduction de la Pauvreté dans les Départements de Tanghin Dassouri et de Komki Ipala, Province du Kadiogo (PPRP-TD/KI), BURKINA FASO","geo_field":"name","lat":12.3425897,"lng":-1.443469},{"name":"province du Nord Kivu, République démocratique du Congo, Butembo, Lubero","category":null,"project_id":"164562","cris_id":null,"project_title":"Appui au développement durable des filières agricoles du Nord Est de la province du Nord Kivu","geo_field":"name","lat":-0.157313,"lng":29.21929},{"name":"Province du Sud (Butare et Gikongoro)","category":null,"project_id":"64345","cris_id":null,"project_title":"URUNANA/UMUHOZA RURAL EXTENSION PROJECT (UREP) - RWANDA","geo_field":"name","lat":-2.602733,"lng":29.737324},{"name":"province du Sud Kivu, République démocratique du Congo","category":null,"project_id":"204093","cris_id":null,"project_title":"Relance de la production agro-pastorale dans la province du Sud Kivu","geo_field":"name","lat":-2.6157721,"lng":29.4687108},{"name":"Provinces de Tuy et Ioba, Régions du Sud-Ouest et des Hauts-Bassins","category":null,"project_id":"118856","cris_id":null,"project_title":"Projet de valorisation des potentialités naturelles et d’appui à la production agricole des unions par filière dans les provinces du Ioba et du Tuy, Burkina Faso","geo_field":"name","lat":11.4942003,"lng":-4.2333355},{"name":"Provinces Huila, Bié, Huambo, Benguela (Angola)","category":null,"project_id":"145985","cris_id":null,"project_title":"Estabelecimento de ''boas prácticas'' no sector do associativismo dos camponeses no planalto central da República de Angola","geo_field":"name","lat":-12.58,"lng":13.4077778},{"name":"Provincia de Niassa, Distrito de Mandimba","category":null,"project_id":"163250","cris_id":null,"project_title":"Produção e Comercialização de Culturas de Rendimento entre pequenos produtores do Niassa","geo_field":"name","lat":-14.35309,"lng":35.64149099999999},{"name":"Províncias do sul do país: Namibe, Cunene, Huila, Benguela, Huambo (Kuando Cubango)","category":null,"project_id":"163850","cris_id":null,"project_title":"Reduçao e controlo da doença de Newcasle in Angola","geo_field":"name","lat":-11.202692,"lng":17.873887},{"name":"Quinara e Bolama","category":null,"project_id":"257531","cris_id":null,"project_title":"Anos ku Tera! Promover a soberania alimentar, fortalecer a economia e a governaçao local","geo_field":"name","lat":11.5307436,"lng":-15.5708865},{"name":"quinara et tombali","category":null,"project_id":"129421","cris_id":null,"project_title":"Projet de sécurité et diversification alimentaire dans le sud de la Guinée-Bissau","geo_field":"name","lat":11.8666667,"lng":-15.6},{"name":"RD Congo, Province du Bas-Congo, Territoires : Madimba, Mbanza–Ngungu et Luozi","category":null,"project_id":"228901","cris_id":null,"project_title":"L’amélioration du cadre de vie socio- économique des ménages agricoles pour la promotion des communautés villageoises de développement.","geo_field":"name","lat":-4.9118563,"lng":14.1640355},{"name":"RDC - province du Bandundu - population et produsteurs de Mateko, Mushie et Inongo - activités de relance agricole (vivrier et cacao) et de renforcement des organisations paysannes avec priorité sur la filière post récolte et commercialisation","category":null,"project_id":"141274","cris_id":null,"project_title":"Relance des filières des cultures vivrières associées au Cacao dans la province du Bandundu","geo_field":"name","lat":-3.3152339,"lng":17.385599},{"name":"RDC - province du Bandundu - territoire de Bulungu","category":null,"project_id":"238978","cris_id":null,"project_title":"Projet d'amélioration durable des systèmes de production et des circuits de commercialisatio dans le territoire de Bulungu - district de Kikwit","geo_field":"name","lat":-4.55,"lng":18.6},{"name":"RDC - province du Bas Congo - populations et producteurs de Kimpese et Kinshasa -","category":null,"project_id":"138087","cris_id":null,"project_title":"Projet de valorisation des produits agricoles au Bas Congo pour une amélioration de la sécurité alimentaire","geo_field":"name","lat":-4.3316667,"lng":15.3138889},{"name":"RDC - province du Kasaï oriental - population et producteurs de Mubji Mayi - activités de relance agricole et de renforcement des organisations paysannes avec priorité sur la filière post récolte et commercialisation","category":null,"project_id":"138187","cris_id":null,"project_title":"Projet d'appui à l'augmentation de la production agricopastorale Commercialisée dans la ville de Mbuji Mayi","geo_field":"name","lat":-6.136985,"lng":23.58983},{"name":"RDC - Province du Katanga District de Tanganyika","category":null,"project_id":"203817","cris_id":null,"project_title":"Projet d'amélioration durable des systèmes de production et de circulation des biens dans les territoires de Nyunzu et de Kalemie","geo_field":"name","lat":-5.9333333,"lng":29.2},{"name":"RDCongo - Nord Kivu - Butembo","category":null,"project_id":"201113","cris_id":null,"project_title":"projet de relance agricole province du Nord Kivu","geo_field":"name","lat":0.127752,"lng":29.287371},{"name":"RDCongo - province Bas Congo - territoires de Lukula et Tshela","category":null,"project_id":"294521","cris_id":null,"project_title":"Agriculture durable et professionalisation des filières agricoles dans le Mayombe - territoires de Lukula et Tshela","geo_field":"name","lat":-5.0077715,"lng":12.9608246},{"name":"RDCongo - province du Bandundu - 13 territoires administratifs sur 18.","category":null,"project_id":"172355","cris_id":null,"project_title":"Développement agricole en province de Bandundu (DAB)","geo_field":"name","lat":29.179722,"lng":-81.0580559},{"name":"RDCongo - province du Bandundu - Territoire de Gungu","category":null,"project_id":"294539","cris_id":null,"project_title":"Appui aux organisations paysannes engagées dans l agroforesterie dans le territoire de Gungu","geo_field":"name","lat":-5.735037999999999,"lng":19.3122599},{"name":"RDCongo - Province Kinshasa - plateau Bateke","category":null,"project_id":"214218","cris_id":null,"project_title":"Augmentation de la disponibilité des denrées alimentaires de Kinshasa par l’appui à la production dans le Plateau de Batéké","geo_field":"name","lat":-4.297638399999999,"lng":15.2469106},{"name":"RDCongo- province du Bas Congo - périphérie de Boma","category":null,"project_id":"238877","cris_id":null,"project_title":"Programme d'appui au développement durable des activités et filières agricoles dans la vallée de Luala - Luozi","geo_field":"name","lat":-4.9118563,"lng":14.1640355},{"name":"RDcongo, Province du Bandundu, District du Kwango","category":null,"project_id":"213516","cris_id":null,"project_title":"Aide alimentaire pour les démunis de Kinshasa, avec achat local au Nord Equateur et au Bandundu","geo_field":"name","lat":-3.3152339,"lng":17.385599},{"name":"Région de l'Est, province de la TAPOA","category":null,"project_id":"307144","cris_id":null,"project_title":"Prévenir l’insécurité alimentaire et nutritionnelle des ménages pauvres et très pauvres par le renforcement de leurs moyens d’existence et de leur résilience aux chocs dans la province de la Tapoa, région de l’Est","geo_field":"name","lat":12.4748829,"lng":2.4248858},{"name":"REGION DE MAN - OUEST DE LA COTE D'IVOIRE","category":null,"project_id":"194905","cris_id":null,"project_title":"PROGRAMME D'URGENCE DE REHABILITATION POST-CRISE PUR III: PROJET INTEGRE DE REHABILITATION RURALE A MAN REGION 18 MONTAGNES","geo_field":"name","lat":7.399999999999999,"lng":-7.55},{"name":"Région de Weima, District de Tadjourah, République de Djibouti","category":null,"project_id":"227862","cris_id":null,"project_title":"Promotion et développement de l'agropastoralisme dans la région Weïma","geo_field":"name","lat":11.9338885,"lng":42.3938375},{"name":"Région des Savanes - Togo","category":null,"project_id":"278213","cris_id":null,"project_title":"Projet d’Appui à la Productivité de l’Élevage dans les systèmes agropastoraux du nord-Togo dans le contexte de la décentralisation (PAPE-Togo)","geo_field":"name","lat":10.5291781,"lng":0.5257822999999999},{"name":"Region No. 9, Guyana","category":null,"project_id":"225500","cris_id":null,"project_title":"Rupununi Regional Field Centre: building individual, organisational and institutional capacities for ecologically sustainable tourism development and fisheries management in the North Rupununi Wetlands.","geo_field":"name","lat":20.7102242,"lng":-101.3620839},{"name":"Région Nord du Burkina Faso","category":null,"project_id":"199089","cris_id":null,"project_title":"CISV -REDUCT.IMPACT CHOCS NATUR SUR PRODUCT AGRI AU BF","geo_field":"name","lat":9.543926899999999,"lng":-0.9056623},{"name":"Région Sud Ouest, district de Betioky & d'Ampanihy","category":null,"project_id":"295705","cris_id":null,"project_title":"Projet Fanantenana Sud Ouest","geo_field":"name","lat":-24.6930487,"lng":44.7451765},{"name":"Régions de Bafata, Cacheu et Gabu, Guinée-Bissau","category":null,"project_id":"257078","cris_id":null,"project_title":"Projet de promotion de la transformation locale du cajou","geo_field":"name","lat":11.8666667,"lng":-15.6},{"name":"Régions des Hauts-Bassins, Sud-Ouest, Boucle du Mouhoun, Cascades, Burkina Faso","category":null,"project_id":"199087","cris_id":null,"project_title":"CONTRAT DE SUBVENTION AVEC SOS SAHEL POUR LA REHABILITATIONET LA RELANCE DE LA PRODUCTION AGRICOLE","geo_field":"name","lat":10.4072992,"lng":-4.5624426},{"name":"Rep. Djibouti","category":null,"project_id":"228290","cris_id":null,"project_title":"Projet de valorisation de l'apiculture traditionnelle","geo_field":"name","lat":11.825138,"lng":42.590275},{"name":"Republic of Mauritius","category":null,"project_id":"266538","cris_id":null,"project_title":"Creation of Job Opportunities for Unemployed Women of Union Park through Mushroom Production","geo_field":"name","lat":-20.348404,"lng":57.55215200000001},{"name":"Republica Democrática de São Tomé e Príncipe","category":null,"project_id":"245045","cris_id":null,"project_title":"Melhorar a capacidade de produção agrícola em São Tomé e Príncipe","geo_field":"name","lat":0.18636,"lng":6.613080999999999},{"name":"République centrafricaine","category":null,"project_id":"64338","cris_id":null,"project_title":"Développement intégré de la zone rurale de la sous-préfecture de Mbaiki - RCA","geo_field":"name","lat":6.611110999999999,"lng":20.939444},{"name":"République Centrafricaine - Ouham Pendé","category":null,"project_id":"156721","cris_id":null,"project_title":"Projet de relance de la production agro-pastorale des communautés de base dans l'Ouham Pendé","geo_field":"name","lat":6.4850984,"lng":16.1580937},{"name":"République Centrafricaine - Sibut (Kémo)","category":null,"project_id":"156750","cris_id":null,"project_title":"Relance du secteur agricole dans la Sous-préfecture de Sibut","geo_field":"name","lat":5.7333333,"lng":19.0833333},{"name":"République Centrafricaine Préfecture de l’Ouham Pende et la périphérie de la ville de Bangui","category":null,"project_id":"134967","cris_id":null,"project_title":"Projet d’appui au développement rizicole et piscicole","geo_field":"name","lat":4.361698,"lng":18.555975},{"name":"République Centrafricaine, Sous-préfecture de Bozoum (Ouham-Pendé)","category":null,"project_id":"254620","cris_id":null,"project_title":"Projet multisectoriel d'amélioration des conditions de vie des populations vulnérables de la sous préfecture de Bozoum- RCA","geo_field":"name","lat":6.315614,"lng":16.37785},{"name":"République démocratique du Congo - Pronvince du Bandundu - Territoire de Gungu","category":null,"project_id":"164568","cris_id":null,"project_title":"Renforcement des productions vivrières dans le territoire de GUNGU","geo_field":"name","lat":-5.735037999999999,"lng":19.3122599},{"name":"République du Congo Pool (Kindamba et Minduli) Bouenza (Madingou et Muyanzi) Niari (Nyanga et Kibangou)","category":null,"project_id":"223557","cris_id":null,"project_title":"Projet de renforcement et d'appui à l'autodéveloppement des organisations de base (PROBA)","geo_field":"name","lat":-3.7435502,"lng":14.5262026},{"name":"RGION DES SAVANES","category":null,"project_id":"194902","cris_id":null,"project_title":"PROGRAMME D'URGENCE DE REHABILITATION POST-CRISE PUR III: INTERVENTION SECURITE ALIMENTAIRE POUR POP VULNERABLE KGHOREGIONS DES SAVANES","geo_field":"name","lat":9.6783614,"lng":-5.5617279},{"name":"Rift Valley and Central Kenya","category":null,"project_id":"133803","cris_id":null,"project_title":"Export Trade from Kenya – Enabling the poor to share the fruits.","geo_field":"name","lat":-0.9076216,"lng":36.3529015},{"name":"Rumphi District of Malawi","category":null,"project_id":"141452","cris_id":null,"project_title":"Rumphi Food Security Project","geo_field":"name","lat":-10.8171295,"lng":33.73440739999999},{"name":"Rural Kassala (Kassala State), Eastern Sudan, Sudan","category":null,"project_id":"217597","cris_id":null,"project_title":"Improving food security and livelihoods in Kassala Rural Areas","geo_field":"name","lat":15.45,"lng":36.4},{"name":"Rwanda","category":null,"project_id":"203073","cris_id":null,"project_title":"Améliorer la sécurité alimentaire des fermiers par le renforcement du secteur agricole","geo_field":"name","lat":-1.940278,"lng":29.873888},{"name":"SADC","category":null,"project_id":"190053","cris_id":null,"project_title":"ICART/CRARF WORLD VISION DEUTSCHLAND E.V. (AGRICULTURAL RESEARCH & CAPACITY BUILDING PROG.(ARCB) FOR POST-CONFLICT REGIO","geo_field":"name","lat":-24.6416343,"lng":25.9070921},{"name":"SADC","category":null,"project_id":"190054","cris_id":null,"project_title":"ICART-CRARF CAB INTERNATIONAL (CABI) COMMUNITY BASED ARMYWORM FORECASTING (CBAF) IN MALAWI, TANZANIA & ZIMBABWE","geo_field":"name","lat":-24.6416343,"lng":25.9070921},{"name":"SADC","category":null,"project_id":"190057","cris_id":null,"project_title":"UNIVERSITY OF THE FREE STATE ( SADC AGRICULTURAL MASTERS PROGRAMME)","geo_field":"name","lat":-24.6416343,"lng":25.9070921},{"name":"SADC","category":null,"project_id":"190059","cris_id":null,"project_title":"UNIVERSITY OF ZIMBABWE ( MSC AND SHORT COURSES IN DAIRY SCIENCE AND TECHNOLOGY)","geo_field":"name","lat":-24.6416343,"lng":25.9070921},{"name":"Saint Lucia","category":null,"project_id":"145891","cris_id":null,"project_title":"SFA 2004 - Banana Commercialization and Agricultural Diversification","geo_field":"name","lat":13.909444,"lng":-60.978893},{"name":"SALIMA AND NTCHISI","category":null,"project_id":"193898","cris_id":null,"project_title":"GRANT CONTRACT CARE INTERNATIONAL DEUTCHLAND","geo_field":"name","lat":-13.2841992,"lng":33.88577470000001},{"name":"Samburu, Kenya","category":null,"project_id":"304745","cris_id":null,"project_title":"ASAL- Agricultural Productivity Research Project (ASAL-APRP): Samburu Pastoralists Livelihood Improvement Project","geo_field":"name","lat":-3.778638,"lng":39.2789},{"name":"Sanaag and Karkaar Regions, Somaliland","category":null,"project_id":"240707","cris_id":null,"project_title":"Social Safety Net for Poor and Vulnerable Households in Northern Regions of Somalia/ Somaliland","geo_field":"name","lat":10.3938218,"lng":47.7637565},{"name":"Sao Domingos e Bigene/Ingore, GW","category":null,"project_id":"168753","cris_id":null,"project_title":"Dinamizacao dos circuitos comerciais regionais nos sectores de Sao Domingos e Bigene/Ingore","geo_field":"name","lat":12.4015799,"lng":-15.79857},{"name":"Sao Tomé e Príncipe","category":null,"project_id":"212790","cris_id":null,"project_title":"Projecto Descentralizado de Seguranca Alimentar em Sao Tomé e Príncipe (PDSA/STP)","geo_field":"name","lat":0.18636,"lng":6.613080999999999},{"name":"Sella Limba, Sanda Loko and Gbanti Kamaranka Chiefdoms, Bombali District, Sierra Leone","category":null,"project_id":"127264","cris_id":null,"project_title":"Demand-Responsive Support to Vulnerable Communities for a Sustainable Improvement of Food Security in Sella Limba, Sanda Loko and Gbanti Kamaranka Chiefdoms, Bombali District","geo_field":"name","lat":9.2475837,"lng":-12.1632718},{"name":"Semi-arid goat producing districts of: Tsholotsho, Lupane, Nkayi (Matabeleland North Province) Gwanda, Beitbridge (Matabeleland South Province) Chivi (Masvingo Province) of Zimbabwe","category":null,"project_id":"137892","cris_id":null,"project_title":"Improved goat production and market participation for food security and sustainable livelihoods in Zimbabwe","geo_field":"name","lat":-19.015438,"lng":29.154857},{"name":"Senafe sub-zone, Zoba Debub, Eritrea","category":null,"project_id":"123167","cris_id":null,"project_title":"Integrated sustainable water management and small-scale irrigation schemes to improve household food security in selected areas of Senafe sub-zone (Debub)","geo_field":"name","lat":14.7041487,"lng":39.42172120000001},{"name":"Senegal","category":null,"project_id":"213894","cris_id":null,"project_title":"Improving access to food for Today, Tomorrow and the Future","geo_field":"name","lat":14.497401,"lng":-14.452362},{"name":"Siaya, Nyando and Homabay Districts in Nyanza Province","category":null,"project_id":"95423","cris_id":null,"project_title":"Poverty Alleviation Across Generations In Rural Communities In Western Kenya","geo_field":"name","lat":0.0626293,"lng":34.2878084},{"name":"Sierra Leone","category":null,"project_id":"212975","cris_id":null,"project_title":"Enhancing Productivity and Resilience of Households (EPRH)","geo_field":"name","lat":8.460555,"lng":-11.779889},{"name":"Sierra Leone","category":null,"project_id":"213280","cris_id":null,"project_title":"Rice Value Chain Development (RVCD)","geo_field":"name","lat":8.460555,"lng":-11.779889},{"name":"Sierra Leone - Bombali and Kenema Districts","category":null,"project_id":"278280","cris_id":null,"project_title":"Unlocking the potential of the Moringa cake as food supplement to increase the productivity and profitability of poultry and fresh water fish in Sierra Leone","geo_field":"name","lat":8.460555,"lng":-11.779889},{"name":"Sierra Leone - Moyamba District","category":null,"project_id":"278423","cris_id":null,"project_title":"Food Poverty Reduction Initiative in the Moyamba District","geo_field":"name","lat":8.1107597,"lng":-12.6216211},{"name":"Small herders (pastoralists) participating in Kenya and Uganda and health service personnel","category":null,"project_id":"200240","cris_id":null,"project_title":"Support to ICIPE: Validation and Initiation of Diffusion of Pro-poor and Poor Environment Tsetse Repellent Technology.","geo_field":"name","lat":-0.023559,"lng":37.906193},{"name":"Solwezi and Mwinilunga districts in North Western Province, Zambia","category":null,"project_id":"308230","cris_id":null,"project_title":"Wealth creation through Irrigation in the North-Western Province (WIN)","geo_field":"name","lat":7.758409100000001,"lng":80.1875065},{"name":"Somalia, Belet Weyne, Matabaan & Bullo Burte Districts, Hiran Region, Central & Southern Somalia","category":null,"project_id":"99272","cris_id":null,"project_title":"Food and Livelihood Security in Hiran Region","geo_field":"name","lat":4.7359722,"lng":45.2039722},{"name":"Somalia, Jowhar District, Middle Shabelle","category":null,"project_id":"99269","cris_id":null,"project_title":"Improved Food Security for the Rural Poor in Middle Shabelle","geo_field":"name","lat":2.78,"lng":45.5008},{"name":"SOUTH SUDAN","category":null,"project_id":"211978","cris_id":null,"project_title":"Integrated and environmentally sound livestock-crops production and marketing","geo_field":"name","lat":7.9630921,"lng":30.1589303},{"name":"South Sudan, Western Bahr el Ghazal State Counties of Wau and Jur River","category":null,"project_id":"290717","cris_id":null,"project_title":"Increased Food Security and Sustainable Livelihoods for Poor and Marginalized Households in Western Bahr El Ghazal State, South Sudan","geo_field":"name","lat":8.6452399,"lng":25.2837585},{"name":"Southeast Liberia","category":null,"project_id":"213500","cris_id":null,"project_title":"Promoting food security in Southeast Liberia (SEL) through commercial rice value chain development","geo_field":"name","lat":6.428055,"lng":-9.429499000000002},{"name":"Southeast Liberia counties of Maryland, River Gee and Grand Kru","category":null,"project_id":"172566","cris_id":null,"project_title":"Enhancing Agricultural Capacities and Economy (PEACE) in Southeast Liberia","geo_field":"name","lat":6.428055,"lng":-9.429499000000002},{"name":"Southern Somalia - Gedo and Lower Juba Regions","category":null,"project_id":"170594","cris_id":null,"project_title":"Supporting Activities of Livestock Entrepreneurs in Somalia (SALES)","geo_field":"name","lat":5.152149,"lng":46.199616},{"name":"Southern Sudan","category":null,"project_id":"192683","cris_id":null,"project_title":"HUMANITARIAN PLUS PROGRAMME II: IMPROVEMENT OF INCOME AND FOOD SECURITY AMONG THE LOCALCOMMUNITIES IN LAINYA COUNTY","geo_field":"name","lat":11.6488639,"lng":24.9042208},{"name":"Southern Sudan","category":null,"project_id":"192690","cris_id":null,"project_title":"HUMANITARIAN PLUS PROGRAMME II: IMOTONG (IRAD)- SUSTAINABLE CROP DIVERSIFICATION ANDPRODUCTION FOR FOOD SECURITY","geo_field":"name","lat":11.6488639,"lng":24.9042208},{"name":"Southern Sudan, Warrap State, Gogrial East County","category":null,"project_id":"233805","cris_id":null,"project_title":"Productive Asset Recovery and Local Institutions Strengthening Project (PARIS)","geo_field":"name","lat":48.856614,"lng":2.3522219},{"name":"St-Mary Parish, Jamaica","category":null,"project_id":"228318","cris_id":null,"project_title":"Catapulting Agriculture into Rural Enterprises","geo_field":"name","lat":18.3092711,"lng":-76.964306},{"name":"SUD EST HAITI","category":null,"project_id":"254679","cris_id":null,"project_title":"CORDAID: Sécurité alimentaire pour 550 familles agro-écologiques de Mombin Crochou, Haiti","geo_field":"name","lat":18.2783598,"lng":-72.35479149999999},{"name":"Sudan - North Darfur, West Darfur, Central Darfur, South Darfur","category":null,"project_id":"306531","cris_id":null,"project_title":"Community-based Market Monitoring in the Darfur Region of Sudan-Phase 2","geo_field":"name","lat":15.7661969,"lng":24.9042208},{"name":"Sudan, Blue Nile region, Geissan, Kurmuk, Baw and Rosaries localities","category":null,"project_id":"256041","cris_id":null,"project_title":"Blue Nile Food Security and Livelihoods Project","geo_field":"name","lat":11.0061019,"lng":34.4198243},{"name":"Sudan, Kassala State, at least 15 selected villages in three localities with the primary focus on Hamesh Koreib","category":null,"project_id":"160622","cris_id":null,"project_title":"Food Security and Flood Prevention in Kassala State","geo_field":"name","lat":15.45,"lng":36.4},{"name":"Sudan, Kassala State; localities: Kassala, Sieteet and Hamashkorib.","category":null,"project_id":"111298","cris_id":null,"project_title":"Increasing Resilience to Poverty of Rural Communities in Kassala State","geo_field":"name","lat":15.45,"lng":36.4},{"name":"Sudan, Khartoum State, Kerari locality, El Fateh","category":null,"project_id":"145939","cris_id":null,"project_title":"Women and Youth Vocational Training & Income Generating Projects","geo_field":"name","lat":15.550101,"lng":32.532241},{"name":"Sudan, South Darfur State: Rehed El Birdi & Edd Al Fursan localities","category":null,"project_id":"296313","cris_id":null,"project_title":"Improved food security for South Darfur communities recovering from conflict and recurrent droughts","geo_field":"name","lat":11.6488639,"lng":24.9042208},{"name":"Sudan, West Darfur (Krenik and Kulbus Localities)","category":null,"project_id":"306253","cris_id":null,"project_title":"Transition to Recovery: Food Security and Livelihoods in Krenik and Kulbus Localities","geo_field":"name","lat":12.8463561,"lng":23.0011989},{"name":"Swaziland","category":null,"project_id":"238752","cris_id":null,"project_title":"Swaziland - ACP Sugar RP - Increasing Sugar Cane yields for Smallholders farmers through Improvements in Irrigation Scheduling","geo_field":"name","lat":-26.522503,"lng":31.465866},{"name":"Swaziland","category":null,"project_id":"281105","cris_id":null,"project_title":"Market Solutions to Impact Food Security and Youth Development in Swaziland","geo_field":"name","lat":-26.522503,"lng":31.465866},{"name":"Swaziland","category":null,"project_id":"307896","cris_id":null,"project_title":"Towards a More Food Secure and Resilient Swaziland: Improving Food Supply, Farmer Profitability, Informal Market Efficiency, and Rural Enterprise","geo_field":"name","lat":-26.522503,"lng":31.465866},{"name":"Swaziland, Sugar belt (part of Manzini, Lubombo and Hhohho Districts)","category":null,"project_id":"258690","cris_id":null,"project_title":"Support to existing small and medium sugar cane growers in Swaziland.","geo_field":"name","lat":-26.522503,"lng":31.465866},{"name":"Tanzania","category":null,"project_id":"230224","cris_id":null,"project_title":"Adaptation and Dissemination of the ‘Push-Pull’ Technology (ADOPT): (Tanzania component)","geo_field":"name","lat":-6.369028,"lng":34.888822},{"name":"Tanzania","category":null,"project_id":"212951","cris_id":null,"project_title":"Mitigating the negative impacts of volatile food prices on vulnerable households in Tanzania","geo_field":"name","lat":-6.369028,"lng":34.888822},{"name":"Tanzania","category":null,"project_id":"213796","cris_id":null,"project_title":"Improving incomes, market access, and disaster preparedness: A rapid response to food insecurity in Shinyanga, Tanzania","geo_field":"name","lat":-6.369028,"lng":34.888822},{"name":"Tanzania","category":null,"project_id":"214264","cris_id":null,"project_title":"SAAFI: Sustainable Agriculture Against Food Insecurity in Kilolo and Namtumbo Districts","geo_field":"name","lat":-6.369028,"lng":34.888822},{"name":"Tanzania","category":null,"project_id":"223938","cris_id":null,"project_title":"''Development of Rural Finance Windows (RFW) to expand adapted financial services to small farmers and rural poor households'' in Tanzania","geo_field":"name","lat":-6.369028,"lng":34.888822},{"name":"Tanzania","category":null,"project_id":"224125","cris_id":null,"project_title":"Improvement of food security and nutritional status in Maasai steppes of northern Tanzania, by applying sustainable farming technologies","geo_field":"name","lat":-6.369028,"lng":34.888822},{"name":"Tanzania","category":null,"project_id":"225414","cris_id":null,"project_title":"Food crops wholesale markets development in Mbeya and Rukwa region","geo_field":"name","lat":-6.369028,"lng":34.888822},{"name":"Tanzania, Lindi, Mtwara, Masasi, Nanyumbu, Kigoma, Kibondo, Iringa and Kilolo Districts Ethiopia, Offa District Burundi, Kirundo District","category":null,"project_id":"201011","cris_id":null,"project_title":"Maximising rural communities’ livelihood options through engagement between Non-state actors, government and the private sector","geo_field":"name","lat":-10.00208,"lng":39.706959},{"name":"Tanzania, Lindi, Mtwara, Masasi, Nanyumbu, Kigoma, Kibondo, Iringa and Kilolo Districts Ethiopia, Offa District Burundi, Kirundo District","category":null,"project_id":"201011","cris_id":null,"project_title":"Maximising rural communities’ livelihood options through engagement between Non-state actors, government and the private sector (Burundi)","geo_field":"name","lat":-10.00208,"lng":39.706959},{"name":"Tanzania, Lindi, Mtwara, Masasi, Nanyumbu, Kigoma, Kibondo, Iringa and Kilolo Districts Ethiopia, Offa District Burundi, Kirundo District","category":null,"project_id":"201011","cris_id":null,"project_title":"Maximising rural communities’ livelihood options through engagement between Non-state actors, government and the private sector (Tanzania)","geo_field":"name","lat":-10.00208,"lng":39.706959},{"name":"Tchad","category":null,"project_id":"270992","cris_id":null,"project_title":"Renforcement de la connaissance juridique et des droits au niveau national","geo_field":"name","lat":15.454166,"lng":18.732207},{"name":"The proposed action is meant to improve food security and livelihoods of the smallholder farmers in three target African countries, namely Burkina Faso, Tanzania and Zambia.","category":null,"project_id":"260875","cris_id":null,"project_title":"Accessible systems to manage risk in family agriculture in Africa","geo_field":"name","lat":-8.783195,"lng":34.508523},{"name":"This Action targets hectares of Agricultural land and naturals resources, Women andhouseholds in the Bagbe and Komboya chiefdoms in Bo District in Sierra Leone","category":null,"project_id":"135171","cris_id":null,"project_title":"Improving Living Conditions and Strengthening of Social Stability and Decentralization in Rural Communities of Former Civil War Areas in Southern Sierra Leone","geo_field":"name","lat":8.460555,"lng":-11.779889},{"name":"TIMOR LESTE","category":null,"project_id":"131850","cris_id":null,"project_title":"Local Initiatives for Food Security Transformation (LIFT) Project","geo_field":"name","lat":-8.874217,"lng":125.727539},{"name":"TIMOR LESTE","category":null,"project_id":"214611","cris_id":null,"project_title":"Baucau Food Security and Nutrition Project  1365","geo_field":"name","lat":-8.874217,"lng":125.727539},{"name":"Timor-Leste","category":null,"project_id":"284340","cris_id":null,"project_title":"Technical Assistance and Capacity Building Programme to strengthen HASATIL Network and CSOs with decentralized actions in the field of Rural Development","geo_field":"name","lat":-8.874217,"lng":125.727539},{"name":"TOGO","category":null,"project_id":"213953","cris_id":null,"project_title":"Appui au développement de la filière céréalière au Togo","geo_field":"name","lat":8.619543,"lng":0.824782},{"name":"Togo, Préfectures de Kpendjal, Oti, Tone, Tandoaré et sous préfecture de Cinkassé","category":null,"project_id":"214249","cris_id":null,"project_title":"Appui aux populations affectées par l’insécurité alimentaire dans la Région des Savanes","geo_field":"name","lat":9.6783614,"lng":-5.5617279},{"name":"Toledo district, Belize","category":null,"project_id":"269356","cris_id":null,"project_title":"Belize Rural Development Project II: Mayan House of Cacao & Chocolate Museum","geo_field":"name","lat":16.2491923,"lng":-88.86469799999999},{"name":"Tonkolili District Sierra Leone","category":null,"project_id":"252201","cris_id":null,"project_title":"Building resilience and community engagement (BRACE) II","geo_field":"name","lat":8.7389416,"lng":-11.7979613},{"name":"Tonkolili District, Sierra Leone","category":null,"project_id":"127127","cris_id":null,"project_title":"Building Resilience and Community Engagement (BRACE)","geo_field":"name","lat":8.7389416,"lng":-11.7979613},{"name":"Trinidad","category":null,"project_id":"247871","cris_id":null,"project_title":"Improving Capacity and Speed of Sugar Cane Breeding in the Caribbean by Investing in State-of-the Art Laboratory Equipment","geo_field":"name","lat":37.1694632,"lng":-104.5005407},{"name":"Urban and peri urban Freetown, Western Area, Sierra Leone","category":null,"project_id":"168968","cris_id":null,"project_title":"Enhancing Food Security and Development Opportunities for Disadvantaged Groups in Freetown by Supporting Technological, Organizational and Institutional Innovations in Urban Agriculture","geo_field":"name","lat":8.484145999999999,"lng":-13.22867},{"name":"Villes de Djibouti, Tadjourah et Dikhil, République de Djibouti","category":null,"project_id":"227877","cris_id":null,"project_title":"Projet pilote d'amélioration de la disponibilité, de l'accès et de l'utilisation des ressources alimentaires pour les populations vulnérables du district d'Ali Sabieh à Djibouti","geo_field":"name","lat":11.10421,"lng":42.37244},{"name":"West Darfur, Sudan","category":null,"project_id":"166291","cris_id":null,"project_title":"Livelihood Diversity and Enterprise Development in East-West Darfur","geo_field":"name","lat":12.8463561,"lng":23.0011989},{"name":"Yambio and Tambura Counties, Western Equatoria State, Southern Sudan","category":null,"project_id":"211627","cris_id":null,"project_title":"Western Equatoria Livelihoods Diversification Project","geo_field":"name","lat":5.3471799,"lng":28.299435},{"name":"Zambezia Province","category":null,"project_id":"159143","cris_id":null,"project_title":"Rice marketing through farmer-owned trade companies in the lower Zambézia","geo_field":"name","lat":-16.5638987,"lng":36.6093926},{"name":"ZAMBIA","category":null,"project_id":"223863","cris_id":null,"project_title":"Responding to soaring food prices: a step towards sustainable agriculture, income generation and empowerment of small scale farmers.","geo_field":"name","lat":-13.133897,"lng":27.849332},{"name":"Zimbabwe","category":null,"project_id":"95182","cris_id":null,"project_title":"INCREASING INCOME OPPORTUNITIES FROM SMALLHOLDER DAIRY PRODUCTION - ZIMBABWE","geo_field":"name","lat":-19.015438,"lng":29.154857},{"name":"Zimbabwe","category":null,"project_id":"121877","cris_id":null,"project_title":"Farmers Clubs improving Food Production - through low-cost techniques and soil and water management","geo_field":"name","lat":-19.015438,"lng":29.154857},{"name":"Zimbabwe","category":null,"project_id":"245849","cris_id":null,"project_title":"Improved Livelihoods and market support in the communal lands of Zimbabwe","geo_field":"name","lat":-19.015438,"lng":29.154857},{"name":"Zimbabwe","category":null,"project_id":"266755","cris_id":null,"project_title":"Conservation Agriculture training and capacity building in rural Zimbabwe","geo_field":"name","lat":-19.015438,"lng":29.154857},{"name":"Zimbabwe - Hwange and Binga districts","category":null,"project_id":"203344","cris_id":null,"project_title":"Livelihood diversification program in Hwange and Binga Districts","geo_field":"name","lat":-18.368719,"lng":26.501539},{"name":"Zimbabwe Provinces: Manicaland and Masvingo Districts: Chipinge, Buhera (Manicaland) Chiredzi (Masvingo) Country: Zimbabwe","category":null,"project_id":"137954","cris_id":null,"project_title":"Food Security and livelihood Independence Programme for Vulnerable Households in South Eastern Zimbabwe","geo_field":"name","lat":-21.05,"lng":31.666667},{"name":"Zimbabwe, Manicaland and Provinces, Chipinge and District","category":null,"project_id":"203263","cris_id":null,"project_title":"Chipinge and Chiredzi Food Security Programme","geo_field":"name","lat":-18.9216386,"lng":32.174605},{"name":"Zimbabwe, Manicaland Province, Chipinge District","category":null,"project_id":"137912","cris_id":null,"project_title":"Sustainable improvement of the livelihood of PLWHA and their families through a comprehensive approach from food security to nutrition in Chipinge District, Manicaland Province, Zimbabwe","geo_field":"name","lat":-20.1914261,"lng":32.6333973},{"name":"Zimbabwe, Manicaland Province, Chipinge District","category":null,"project_id":"137914","cris_id":null,"project_title":"Food Aid, Improved Food Security and Livelihoods for Vulnerable Households in 60 Farm Villages of Chipinge District, Manicaland Province.","geo_field":"name","lat":-20.1914261,"lng":32.6333973},{"name":"Zimbabwe, Mashona land Central Province","category":null,"project_id":"119694","cris_id":null,"project_title":"Sustainable Agriculture Contributing to Enhanced Livelihoods among FACHIG Members in HIV/AIDS Affected Farming Systems in Zimbabwe","geo_field":"name","lat":-16.7644295,"lng":31.0793705},{"name":"Zimbabwe. Gweru, Shorokwe, Mutoko, Mudzi districts","category":null,"project_id":"308479","cris_id":null,"project_title":"Integrated Program to achieve Sustainable Food Security  : Improved food, nutrition and income security of resource poor farming house-holds in semi-arid regions","geo_field":"name","lat":-19.451321,"lng":29.817739},{"name":"Zimbabwe: Manicaland Province; Chipinge District","category":null,"project_id":"203379","cris_id":null,"project_title":"Livelihoods For Improved Nutrition (LIFIN)","geo_field":"name","lat":-20.1914261,"lng":32.6333973},{"name":"Zimbabwe: Matabeleland North and Matebeleland West Province: Lupane, Nkayi, Bulawayo and Hurungwe Districts","category":null,"project_id":"203347","cris_id":null,"project_title":"Food Security and Livelihood Program for food insecure communities in the Nkayi, Lupane and Hurungwe districts and peri-urban areas of Bulawayo province","geo_field":"name","lat":-20.1489505,"lng":28.5331038},{"name":"Zimbabwe: Matabeleland South Province: Insiza (ward 16, 18, 22) and Gwanda (ward 18,20)","category":null,"project_id":"203358","cris_id":null,"project_title":"Matebeleland South Food and Livelihoods Security Project","geo_field":"name","lat":-19.781799,"lng":29.191469},{"name":"Zimbabwe: Midland Province: Kwekwe, Gweru, Shurugwi and Mberengwa District","category":null,"project_id":"203393","cris_id":null,"project_title":"Food security and poverty alleviation for Midlands Province","geo_field":"name","lat":-19.0552009,"lng":29.6035495},{"name":"Zimbabwe: Midlands and Manicalands Province: Gokwe North, Gokwe South and Nyanga District","category":null,"project_id":"203349","cris_id":null,"project_title":"Improving the Livelihoods security of vulnerable populations in Zimbabwe 2009-2012","geo_field":"name","lat":-19.015438,"lng":29.154857},{"name":"Zimbabwe: Midlands and Masvingo Provinces: Gutu, Chirumanzu and Zvishavane Districts","category":null,"project_id":"203370","cris_id":null,"project_title":"Food security and livelihood programme in Zimbabwe","geo_field":"name","lat":-19.015438,"lng":29.154857},{"name":"Zimbabwe; Masvingo Province; Lowveld; (Sugar industry around Chiredze and Triangle)","category":null,"project_id":"230197","cris_id":null,"project_title":"AAP - Accompanying Measures for Sugar Protocol Countries - Allocation 2009 for Zimbabwe","geo_field":"name","lat":-20.6241509,"lng":31.2626366},{"name":"Zimbabwe; Provinces – Manicaland & Midlands; Districts – Makoni, Lower Gweru & Kwekwe","category":null,"project_id":"137921","cris_id":null,"project_title":"Sustainable food security, livestock development, seed multiplication and agro-forestry","geo_field":"name","lat":-18.9166667,"lng":29.8166667},{"name":"Zoba Debub (Mendefera, Emni Haili, Adi quala, Debarwa, Mai Mine), Eritrea","category":null,"project_id":"124297","cris_id":null,"project_title":"Multi-intervention approach to address pressing needs for food and strengthen food security of vulnerable communities in Eritrea","geo_field":"name","lat":15.179384,"lng":39.782334},{"name":"Zomba, Malawi","category":null,"project_id":"213912","cris_id":null,"project_title":"Green Health- Back Yard Gardening to increase food production among vulnerable households.","geo_field":"name","lat":-15.3833333,"lng":35.3333333},{"name":"Zone Nord Côte d'Ivoire","category":null,"project_id":"267720","cris_id":null,"project_title":"Restructuration et professionnalisation des organisations professionnelles agricoles de la filière coton (Phase II)","geo_field":"name","lat":5.300939,"lng":-3.983775},{"name":"ZONE OUEST","category":null,"project_id":"194900","cris_id":null,"project_title":"PROGRAMME D'URGENCE DE REHABILITATION POST-CRISE PUR III: 2EME REHABILITATION INFRASTRUCTURES DE BASES ZONE OUESTET APPUI A LA RELANCE AGRICOLES POUR UN RETOUR DES FAMILLES","geo_field":"name","lat":18.8396731,"lng":-72.8668712},{"name":"Zones de production bananière du Cameroun + Douala/Yaoundé","category":null,"project_id":"123013","cris_id":null,"project_title":"Appui à l'ASSOBACAM","geo_field":"name","lat":3.866666699999999,"lng":11.5166667},{"name":"Zorzor and Salayea districts of Lofa County, Liberia","category":null,"project_id":"172568","cris_id":null,"project_title":"Lofa Livelihood Security Programme (LLSP)","geo_field":"name","lat":7.775242100000001,"lng":-9.4256031},{"name":null,"category":null,"project_id":"11430","cris_id":null,"project_title":"EROSIONSBEKAMPFUNG UND VERBESSERTE LANDNUTZUNG SABCEBOUSSOUMA IN BURKINA FASO","geo_field":"name","lat":12.238333,"lng":-1.561593},{"name":null,"category":null,"project_id":"11440","cris_id":null,"project_title":"PROJECTO DE DESENVOLVIMENTO AGRO-PECUARIO DE MAGUDEDISTRITO DE MAGUDE PROVINCIA DE MAPUTO - MOCAMBIQUE","geo_field":"name","lat":-25.020611,"lng":32.64579},{"name":null,"category":null,"project_id":"11460","cris_id":null,"project_title":"PROJET DE DEVELOPPEMENT RURAL DANS LES TERRITOIRES DE BENIET DE LUBERO (NORD-KIVU, REPUBLIQUE DEMOCRATIQUE DU CONGO)","geo_field":"name","lat":-0.157313,"lng":29.21929},{"name":null,"category":null,"project_id":"11520","cris_id":null,"project_title":"NACHHALTIGE LANDNUTZUNGSSYSTEME IN DEN DISTRIKTEN MAFETENGUND MOHALE'S HOEK / LESOTHO, PHASE II","geo_field":"name","lat":53.1432607,"lng":6.3712547},{"name":null,"category":null,"project_id":"11548","cris_id":null,"project_title":"PROMOTION OF SUSTAINABLE ORGANIC FARMING AND OF COMMUNITYBASED ORGANISATIONS IN UGANDA","geo_field":"name","lat":1.373333,"lng":32.290275},{"name":null,"category":null,"project_id":"11549","cris_id":null,"project_title":"RURAL FARMERS CAPACITY BUILDING PROJECT IN MASINDI DISTRICTUGANDA","geo_field":"name","lat":1.68156,"lng":31.70957},{"name":null,"category":null,"project_id":"11667","cris_id":null,"project_title":"A THREE YEARS AND THREE MONTHS STRATEGIC PLAN FOR AGRICUL-TURAL AND RURAL ENTERPRISES DEVELOPMENT ASSISTANCE-UGANDA","geo_field":"name","lat":1.373333,"lng":32.290275},{"name":null,"category":null,"project_id":"11726","cris_id":null,"project_title":"INTEGRATED FOOD SECURITY IN SISSALA AND BAWKU WEST DISTRICTSIN NORTHERN GHANA","geo_field":"name","lat":9.543926899999999,"lng":-0.9056623},{"name":null,"category":null,"project_id":"11793","cris_id":null,"project_title":"SOUTIEN A UN RESEAU CREDIT DE FEMMES ET JEUNES POUR LEDEVELOPPEMENT LOCAL ET LA LUTTE A L'EMIGRATION DANS LAREGION DE LOUGA-SENEGAL","geo_field":"name","lat":15.4370399,"lng":-15.2194808},